#station_id | station_name | raccnt | station_lat | station_lon
9ST-4|102. 망원역 1번출구 앞|15|37.555648|126.910629
ST-5|103. 망원역 2번출구 앞|14|37.554950|126.910835
ST-6|104. 합정역 1번출구 앞|13|37.550739|126.915084
ST-7|105. 합정역 5번출구 앞|5|37.550006|126.914825
ST-8|106. 합정역 7번출구 앞|12|37.548645|126.912826
ST-9|107. 신한은행 서교동지점|5|37.557510|126.918502
ST-10|108. 서교동 사거리|12|37.552745|126.918617
ST-15|111. 상수역 2번출구 앞|10|37.547870|126.923530
ST-16|112. 극동방송국 앞|10|37.549201|126.923202
ST-18|113. 홍대입구역 2번출구 앞|25|37.557437|126.923820
ST-20|114. 홍대입구역 8번출구 앞|15|37.557060|126.924423
ST-12|115. 마스타 빌딩 앞|15|37.558933|126.927116
ST-17|117. 홍은사거리|23|37.591159|126.941329
ST-19|118. 광흥창역 2번출구 앞|9|37.547733|126.931762
ST-21|119. 서강나루 공원|10|37.545207|126.931465
ST-22|120. 신수동 사거리|5|37.545242|126.934112
ST-23|121. 마포소방서 앞|15|37.549766|126.933174
ST-24|122. 신성기사식당 앞|10|37.547458|126.938377
ST-25|123. 문화촌 공원|20|37.594329|126.947387
ST-26|124. 서강대 정문 건너편|35|37.551139|126.936988
ST-28|126. 서강대 후문 옆|20|37.550411|126.943847
ST-29|127. 현대벤처빌 앞|9|37.553520|126.936950
ST-30|128. 신촌역(2호선) 1번출구 옆|20|37.555496|126.936340
ST-31|129. 신촌역(2호선) 6번출구 옆|10|37.555053|126.937568
ST-32|130. 신촌역(2호선) 7번출구 앞|10|37.554859|126.936157
ST-33|131. 증산2교|20|37.584171|126.911102
ST-35|133. 해담는다리|15|37.582031|126.908996
ST-36|134. 연세로 명물길|8|37.557891|126.938079
ST-37|135. 명물길 원형무대 앞|10|37.559226|126.939842
ST-39|137. 신촌기차역입구 교차로|10|37.556812|126.943183
ST-40|138. 신촌동 제1공영주차장 앞|10|37.559177|126.934524
ST-43|139. 연세대 정문 건너편|10|37.559864|126.934417
ST-41|140. 이화여대 후문|22|37.560009|126.940734
ST-42|141. 연대 대운동장 옆|10|37.562381|126.932647
ST-200|142. 아현역 4번출구 앞|11|37.557201|126.955665
ST-201|143. 공덕역 2번출구|9|37.544578|126.950218
ST-202|144. 공덕역 8번출구|10|37.543579|126.951324
ST-203|145. 공덕역 5번출구|9|37.544250|126.951637
ST-204|146. 마포역 2번출구 뒤|12|37.539936|126.945823
ST-205|147. 마포역 4번출구 뒤|7|37.539272|126.945915
ST-206|148. 용강동 주민센터 앞|11|37.542346|126.943023
ST-207|150. 서강대역 2번출구 앞|15|37.552955|126.934341
ST-210|153. 성산2교 사거리|10|37.564697|126.912612
ST-211|154. 마포구청역 |13|37.560909|126.905494
ST-212|155. 가좌역1 번출구 앞|15|37.568294|126.915046
ST-213|156. 서울서부지방법원 앞|10|37.549331|126.954917
ST-214|157. 애오개역 4번출구 앞|12|37.553001|126.956687
ST-216|159. 이대역 4번 출구|5|37.556953|126.946342
ST-217|160. 북아현동 가구거리|13|37.557548|126.959381
ST-218|161. 무악재역1번 출구|8|37.582244|126.950645
ST-219|162. 봉원고가차도 밑|15|37.566261|126.946670
ST-220|163. 명지전문대학교 정문 앞|6|37.583698|126.924964
ST-221|164. 북가좌1동 주민센터 |10|37.574478|126.910049
ST-222|165. 중앙근린공원|20|37.575138|126.913940
ST-223|166. 가재울 초등학교|20|37.573818|126.919235
ST-224|167. 연가초등학교 옆|15|37.579460|126.917129
ST-226|169. 북가좌 삼거리|10|37.573001|126.907798
ST-227|170. DMC파크뷰자이아파트 302동 앞|10|37.573112|126.922447
ST-228|171. 임광빌딩 앞|10|37.564723|126.967277
ST-230|173. 서대문역 8번출구 앞|8|37.564777|126.966148
ST-231|175. 홍연2교옆|20|37.578067|126.930885
ST-555|176. 명지대학교 도서관|10|37.581096|126.924026
ST-345|177. 북가좌 초등학교|8|37.577636|126.909652
ST-349|178. 증산3교 앞|10|37.579875|126.906349
ST-232|179. 가좌역 4번출구 앞|14|37.568775|126.915298
ST-233|180. 충정로역 7번출구 아래|10|37.559967|126.962463
ST-339|181. 망원초록길 입구|15|37.551342|126.902671
ST-340|182. 망원2빗물펌프장 앞|9|37.551364|126.903060
ST-341|183. 하늘채코오롱아파트 건너편|15|37.565387|126.919326
ST-342|184. 7번가피자 서교망원점|8|37.558948|126.907752
ST-343|185. 마포 신수공원 앞|15|37.542545|126.934295
ST-344|186. 월드컵공원|40|37.563964|126.898208
ST-346|188. 홍은동 정원여중 입구|9|37.586387|126.935127
ST-347|191. 서우빌딩|10|37.578891|126.910736
ST-348|192. 연서어린이공원|10|37.572227|126.923065
ST-350|194. 증산교 앞|10|37.577316|126.902969
ST-351|195. 모래내고가차도 |10|37.567657|126.917808
ST-352|196. 연희교차로 인근|10|37.566120|126.925895
ST-443|199. 서울 월드컵 경기장|30|37.566844|126.896446
ST-45|200. 국회의원회관|18|37.528415|126.913917
ST-46|201. 진미파라곤 앞|15|37.531238|126.921333
ST-47|202. 국민일보 앞|30|37.528816|126.924530
ST-51|203. 국회의사당역 3번출구 옆|15|37.528057|126.918701
ST-50|204. 국회의사당역 5번출구 옆|13|37.528163|126.917022
ST-52|205. 산업은행 앞|20|37.526264|126.920509
ST-53|206. KBS 앞|35|37.524665|126.918022
ST-73|207. 여의나루역 1번출구 앞|46|37.527156|126.931900
ST-55|209. 유진투자증권빌딩 앞|12|37.524612|126.927833
ST-59|213. KT앞|19|37.521907|126.918952
ST-60|214. 금융감독원 앞|21|37.523021|126.920837
ST-64|215. 여의도고교 앞|10|37.524837|126.934906
ST-66|217. NH농협은행 앞|15|37.522079|126.930366
ST-62|219. 롯데캐슬엠파이어 옆|12|37.520694|126.925834
ST-63|220. 미성아파트 A동 앞|30|37.519363|126.926048
ST-67|221. 여의도초교 앞|10|37.522674|126.937789
ST-68|222. 시범아파트버스정류장 옆|12|37.519020|126.936889
ST-69|223. 진주아파트상가 앞|20|37.519130|126.933372
ST-70|224. 롯데캐슬 앞|20|37.520088|126.932365
ST-71|225. 앙카라공원 앞|26|37.517585|126.929618
ST-72|226. 샛강역 1번출구 앞|19|37.517765|126.928413
ST-277|227. 양평2나들목 보행통로 입구|20|37.544666|126.888359
ST-278|228. 선유도역 3번출구 앞|10|37.538459|126.894508
ST-279|229. 양평1 보행육교 앞|25|37.535873|126.892181
ST-413|230. 영등포구청역 1번출구|13|37.524635|126.896217
ST-280|231. 남부고용노동지청 남측|10|37.524505|126.891822
ST-281|232. 양평우림 이비즈센타 앞|20|37.525650|126.887817
ST-282|233. 양평1동 YP센터 앞|10|37.528488|126.891647
ST-284|235. 신길동 우리은행 옆|10|37.504566|126.910232
ST-285|236. 문래동자이아파트 앞|10|37.516155|126.894615
ST-286|237. 보라매 두산위브 건너편|20|37.496513|126.914802
ST-287|238. 제2구민체육센타 앞|10|37.526386|126.902755
ST-288|239. 유스호스텔 앞|20|37.525852|126.903282
ST-289|240. 문래역 4번출구 앞|10|37.518737|126.895576
ST-290|241. 신길우성1차아파트 앞 공원|10|37.505016|126.898536
ST-291|242. 신길선원가와인아파트 앞|15|37.510932|126.910224
ST-292|243. 이앤씨드림타워 앞|15|37.527084|126.891380
ST-293|244. 영등포삼환아파트 앞|20|37.530078|126.905708
ST-294|245. 삼성생명 당산사옥 앞|14|37.528263|126.896629
ST-295|247. 당산역 10번출구 앞|14|37.533420|126.902236
ST-296|248. 초원아파트 앞|10|37.531055|126.924209
ST-297|249. 여의도중학교 옆|16|37.524349|126.936119
ST-298|250. 대림아파트 사거리|10|37.507640|126.923080
ST-299|251. 서울지방병무청 버스정류장|10|37.504493|126.921951
ST-300|252. 보라매역4번출구|10|37.499828|126.919944
ST-302|254. 도림신협 앞|10|37.503803|126.903419
ST-303|255. 도림사거리|15|37.506572|126.901130
ST-304|256. 동아에코빌입구|10|37.509475|126.899299
ST-306|258. 신길역3번출구|14|37.517692|126.914299
ST-307|259. 대방역6번출구|17|37.513591|126.925933
ST-414|260. 여의도 마리나선착장 앞|15|37.533657|126.912162
ST-416|262. 영문초등학교 사거리|12|37.519927|126.889183
ST-417|263. 근로자회관 사거리|12|37.517150|126.888626
ST-418|264. 교보생명보험 앞|15|37.521930|126.891616
ST-419|265. 영등포유통상가 사거리|11|37.521133|126.896537
ST-420|266. 영등포청과시장 사거리|10|37.520294|126.901191
ST-421|267. 삼성화재 사옥 옆|10|37.535961|126.898300
ST-422|268. 그랜드컨벤션센터 앞|6|37.534717|126.900001
ST-424|270. 증권거래소후문교차로|10|37.522342|126.927101
ST-425|271. 샛강생태공원방문자센터 앞|10|37.518962|126.921615
ST-426|272. 당산육갑문|20|37.535339|126.903678
ST-1320|275. 신동아아파트|10|37.522697|126.885681
ST-1321|276. 영등포로터리2|10|37.518283|126.912635
ST-1323|278. 쌍용플레티넘오피스텔|10|37.507930|126.895233
ST-1353|279. 영등포 푸르지오 아파트 B|15|37.513229|126.904464
ST-1539|280. 양평동6차현대아파트 앞|10|37.532100|126.894439
ST-1540|281. 대림신동아아파트 앞|8|37.498241|126.893981
ST-1541|282. 신한은행 대림동지점|10|37.487529|126.904876
ST-1649|283. 아크로타워 스퀘어(영등포시장)|15|37.522518|126.907218
ST-1650|284. 센트럴 푸르지오 시티 앞|16|37.518211|126.902229
ST-1651|285. 콤텍시스템 앞|14|37.499858|126.897239
ST-1652|286. 우성아파트 교차로|12|37.494571|126.899749
ST-1653|287. 영등포전화국사거리 (서강어린이공원)|10|37.525768|126.905738
ST-1677|288. 쌍용예가(구청별관)|10|37.528099|126.893386
ST-1697|289. 대림3동사거리|10|37.499809|126.898002
ST-1698|290. 새말소공원|12|37.531509|126.897827
ST-1699|291. 문래동 하이테크 시티|14|37.514129|126.899391
ST-1700|292. 영일 어린이공원|10|37.510120|126.904067
ST-1701|293. 충북 미래관|15|37.529170|126.907577
ST-1967|295.영등포공원 분수대 앞|10|37.514812|126.911705
ST-1968|296.KT플라자 영등포점|20|37.526302|126.905380
ST-1969|297.국회3문|10|37.528636|126.912673
ST-1970|298.KBS 연구동 건너편|25|37.527507|126.914299
ST-1971|299.여의도 순복음교회|10|37.531791|126.922454
ST-116|300. 정동사거리|6|37.568050|126.969230
ST-117|301. 경복궁역 7번출구 앞|20|37.575794|126.971450
ST-118|302. 경복궁역 4번출구 뒤|12|37.575946|126.974060
ST-119|303. 광화문역 1번출구 앞|8|37.571769|126.974662
ST-121|305. 종로구청 옆|16|37.572559|126.978332
ST-123|307. 서울역사박물관 앞|11|37.569999|126.971099
ST-124|308. 광화문 S타워 앞|31|37.569969|126.973937
ST-125|309. 광화문역 6번출구 옆 B|13|37.569961|126.976158
ST-126|310. 청계광장 옆|8|37.568878|126.977470
ST-130|314. 국립현대미술관|10|37.579708|126.980857
ST-132|316. 종각역 1번출구 앞|8|37.570396|126.981788
ST-134|318. 광교사거리 남측|10|37.568634|126.982315
ST-136|320. 을지로입구역 4번출구 앞|17|37.566223|126.983589
ST-137|321. KEB 하나금융그룹 명동사옥 옆|15|37.565464|126.984138
ST-138|322. 명동성당 앞|10|37.564476|126.986968
ST-140|324. 신세계백화점 본점 앞|8|37.561344|126.980506
ST-142|326. 안국역 5번출구 앞|15|37.576240|126.986160
ST-143|327. 낙원상가 옆|10|37.573356|126.987464
ST-144|328. 탑골공원 앞|11|37.570396|126.988189
ST-145|329. 청계2가 사거리 옆|8|37.568485|126.987884
ST-147|331. 을지로2가 사거리 북측|10|37.566383|126.987205
ST-148|332. 을지로2가 사거리 남측|5|37.565990|126.987792
ST-150|334. 종로3가역 2번출구 뒤|10|37.570598|126.991790
ST-151|335. 종로3가역 15번출구 앞|10|37.570194|126.991653
ST-152|336. 충무로역 6번출구 앞|8|37.561447|126.993110
ST-153|337. 창경궁 입구|5|37.578979|126.996475
ST-154|338. 세운스퀘어 앞|18|37.570957|126.997123
ST-155|339. 종로4가 사거리|10|37.571067|126.998191
ST-156|340. 혜화동 로터리|8|37.585628|127.000679
ST-157|341. 혜화역 3번출구 뒤|8|37.581569|127.001785
ST-158|342. 대학로 마로니에공원|22|37.579784|127.002532
ST-159|343. 힐스테이트창경궁 아파트 앞|6|37.575611|127.004699
ST-160|344. 성균관대 E하우스 앞|10|37.574199|127.006591
ST-161|345. 서울보증보험본사 앞|18|37.573307|127.000709
ST-162|346. 맥스타일 앞|10|37.569183|127.009880
ST-163|347. 동대문역사문화공원역 9번출구 앞|18|37.565330|127.007843
ST-183|348. 독립문역 사거리|14|37.572029|126.960784
ST-165|349. 어린이도서관|5|37.576332|126.968589
ST-167|351. 청운초교 앞 삼거리|5|37.584968|126.970413
ST-169|353. 재동초교 앞 삼거리|8|37.579387|126.984947
ST-170|354. 포르투갈 대사관 앞|10|37.579154|126.988960
ST-171|355. 서울사대부설초등학교 앞|15|37.576507|127.002456
ST-172|356. KT혜화지사 앞|15|37.577144|127.002059
ST-173|358. 성균관대입구 사거리 A|13|37.582500|126.998535
ST-174|359. 원남동사거리|8|37.576061|126.997680
ST-175|361. 동묘앞역 1번출구 뒤|10|37.573242|127.015907
ST-176|362. 청계8가사거리 A|10|37.572196|127.023040
ST-177|363. 신설동역 11번출구 뒤|13|37.575592|127.022850
ST-178|364. 창신역 1번출구 앞|8|37.579334|127.015083
ST-180|367. 독립문역 3-1번출구 |13|37.574157|126.958518
ST-181|368. SK 서린빌딩 앞|15|37.569248|126.980537
ST-185|370. 시청역(2호선) 9번출구 뒤|24|37.563228|126.974838
ST-186|371. 동대입구역 6번출구 뒤|10|37.558872|127.005538
ST-187|372. 약수역 3번출구 뒤|10|37.554294|127.011199
ST-189|374. 청구역 2번출구 앞|12|37.560474|127.014076
ST-194|379. 서울역9번출구|7|37.555999|126.973358
ST-195|380. CJ제일제당 앞|8|37.563865|127.002746
ST-196|381. 장충체육관|15|37.558532|127.006988
ST-197|382. 약수역 10번출구 앞|7|37.555198|127.010047
ST-198|383. 신당역 12번 출구 뒤|22|37.565849|127.016403
ST-199|384. 종로학원본원 |10|37.559780|126.968505
ST-336|385. 종각역 5번출구|10|37.569835|126.982658
ST-338|387. 훈련원공원주차장 앞|10|37.566993|127.003463
ST-444|388. 동성중학교 앞|10|37.585735|127.001609
ST-943|389. 을지로4가역 1번출구|10|37.566730|126.996604
ST-944|390. 충무로역 1번출구|12|37.561389|126.995353
ST-977|391. 시립미술관|8|37.565052|126.973403
ST-1372|393. 동대문역 8번 출구|12|37.570140|127.009376
ST-1373|394. 경희궁 자이 3단지|15|37.567489|126.965919
ST-1374|395. 경희궁 자이 2단지|8|37.568855|126.964561
ST-1432|397. 종묘공영주차장 건너편|13|37.570480|126.996635
ST-1435|398. 을지로3가역 3번출구|8|37.566558|126.992439
ST-1436|399. 서울역 센트럴 자이아파트|15|37.554107|126.965408
ST-110|400. 상암한화오벨리스크 1차 앞|14|37.587524|126.883003
ST-76|401. 상암월드컵파크 10단지 앞|13|37.586189|126.881614
ST-77|402. 상암월드컵파크 9단지 앞|20|37.582927|126.879837
ST-78|403. 부엉이공원 앞|20|37.585590|126.884727
ST-80|405. DMC빌 앞|8|37.582656|126.885787
ST-81|406. 상암월드컵파크 7단지 앞|15|37.581111|126.880874
ST-83|407. 마포구 육아종합지원센터|8|37.580631|126.883674
ST-84|408. LG CNS앞|14|37.580810|126.886650
ST-86|409. 누리꿈스퀘어 옆|30|37.579399|126.889160
ST-88|410. 상암중학교 옆|10|37.577392|126.887474
ST-90|411. DMC홍보관|10|37.577995|126.891471
ST-91|412. DMC산학협력연구센터 앞|21|37.575656|126.890792
ST-92|413. 상암월드컵파크 3단지 후문|10|37.571475|126.889686
ST-94|414. 상암동주민센터 옆|8|37.578220|126.894470
ST-95|415. DMC역 9번출구 앞|10|37.577468|126.897361
ST-96|416. 상암월드컵파크 1단지 교차로|12|37.575664|126.894447
ST-93|417. DMC역 2번출구 옆|20|37.575069|126.899917
ST-89|418. 월드컵경기장역 3번출구 옆|20|37.570480|126.898895
ST-87|419. 홈플러스 마포점 앞|21|37.568420|126.899429
ST-85|420. 서울시 공공자전거 상암센터|37|37.566246|126.896179
ST-82|421. 마포구청 앞|8|37.565746|126.901863
ST-968|422. 문화비축기지|9|37.568977|126.894401
ST-990|424. 롯데하이마트 (상암월드컵점)|15|37.573619|126.898048
ST-991|425. DMC첨단산업센터|10|37.584503|126.885597
ST-992|426. 서울신용보증재단|10|37.549060|126.954177
ST-1397|427. 성산시영아파트|10|37.569583|126.903816
ST-1437|428. 명보사거리|10|37.564399|126.991432
ST-1438|429. 송도병원|8|37.549888|127.007347
ST-1439|430. 장충동먹자골목 앞|6|37.562126|127.006256
ST-1440|431. 청계천 영도교|25|37.571014|127.019744
ST-1494|432. 마포중앙도서관|10|37.563339|126.908203
ST-1668|433. 을지로입구역 2번출구|12|37.566345|126.982292
ST-1669|434. 신당 래미안 버스정류장|10|37.561489|127.023933
ST-1670|435. SK 남산빌딩|10|37.556861|126.975616
ST-1675|436. 이대역 5번출구|10|37.556591|126.946189
ST-1691|437. 대흥역 1번출구|12|37.548469|126.940925
ST-1692|438. 성산2-1 공영주차장|15|37.564720|126.906768
ST-1754|440. 하늘공원 입구|15|37.570121|126.881347
ST-1761|441.염천교사거리|15|37.559890|126.971496
ST-1768|442.서울역 서부|13|37.556415|126.969192
ST-1769|443.호암아트홀|9|37.562110|126.970718
ST-1771|445.대한상공회의소|15|37.560153|126.974105
ST-938|446. 상명대입구|13|37.600128|126.957832
ST-939|447. 신영동삼거리|6|37.603992|126.961944
ST-941|449. 일성아파트|10|37.608718|126.972862
ST-978|450. 효자동 삼거리|51|37.583602|126.972549
ST-979|451. 청와대앞길|8|37.583515|126.979667
ST-1605|452. 동대문 종합시장 버스정류장|13|37.571239|127.004409
ST-1606|453. 종로오가 지하쇼핑센터 14번출구|10|37.571140|127.000671
ST-1607|454. 종로2가 버스정류장 (종각방향)|13|37.570358|126.986381
ST-1608|455. 종로6가역 버스정류장(동대문 방향)|8|37.570961|127.006057
ST-1609|456. 숭인2동 주민센터 입구|10|37.574470|127.019828
ST-1610|457. 종로꽃시장 입구 옆|10|37.571319|127.007209
ST-1611|458. 광화문역 5번출구|21|37.569892|126.977569
ST-1619|461. 서울지방경찰청|10|37.574363|126.972366
ST-1752|462. 신영동삼거리(북악터널방향)|10|37.603511|126.962066
ST-1756|464. 삼청동 골목|10|37.584190|126.981697
ST-1759|465. 삼청공원 앞|5|37.587604|126.983596
ST-1772|466.롯데호텔|13|37.565841|126.979812
ST-1773|467.한국은행|11|37.562213|126.980865
ST-1774|468.웨스틴 조선호텔|8|37.564159|126.979484
ST-1775|469.회현역 1번출구|11|37.559230|126.980140
ST-1776|470.회현역 7번출구|13|37.559745|126.980003
ST-1777|471.회현사거리 남측|10|37.560359|126.982650
ST-1778|472.삼일교(시그니쳐 타워)|12|37.567871|126.988403
ST-1779|473.을지로4가역 9번출구|20|37.566051|126.997985
ST-1780|474.동대문역사문화공원역 1번출구 뒤편|40|37.566299|127.008491
ST-1781|475.DDP 패션몰|21|37.567649|127.011810
ST-1782|476.광희문|10|37.564430|127.009956
ST-1783|477.앰배서더 호텔 주변|10|37.559288|127.002685
ST-1785|479.동대입구역 3번 출구|8|37.559375|127.006027
ST-1786|480.약수역 6번 출구|8|37.554321|127.010704
ST-1789|483.남산타운아파트 버스정류장|12|37.547584|127.006439
ST-1790|484.도동삼거리|12|37.556148|126.977424
ST-1791|485.서울역5번출구|10|37.556770|126.973197
ST-2019|486. 평창동주민센터 앞|5|37.606273|126.968322
ST-2146|487.신석초교앞 교차로 교통섬|15|37.543640|126.938308
ST-2147|488.푸르메병원|10|37.584568|126.880210
ST-2148|489.구룡근린공원|10|37.583202|126.882766
ST-2149|490.가온문화공원|23|37.582077|126.887664
ST-2150|491.월드컵파크 4단지|10|37.575977|126.888069
ST-2152|493.홍대입구역 6번출구|7|37.556575|126.928855
ST-2153|494.신수동주민센터|5|37.547245|126.935028
ST-2154|495.염리초등학교 앞|10|37.542430|126.946998
ST-2156|497.합정동주민센터 앞|25|37.551754|126.912300
ST-2157|498.연남동주민센터 앞|10|37.564651|126.922126
ST-97|500. 어린이대공원역 3번출구 앞|7|37.547069|127.074272
ST-98|501. 광진구의회 앞|30|37.537307|127.070350
ST-99|502. 자양(뚝섬한강공원)역 1번출구 앞|33|37.531860|127.067192
ST-102|505. 자양사거리 광진아크로텔 앞|12|37.537010|127.082244
ST-103|506. 금호 어울림 아파트 앞|7|37.549060|127.057792
ST-105|508. 성수아카데미타워 앞|10|37.545166|127.057510
ST-107|510. 뚝도아리수정수센터 버스정류소 옆|15|37.541221|127.043800
ST-108|511. 서울숲역 5번 출구 옆|16|37.544582|127.044609
ST-109|512. 뚝섬역 1번 출구 옆|15|37.548561|127.045005
ST-111|513. 뚝섬역 5번 출구 정류소 옆|13|37.546306|127.049804
ST-112|514. 성수사거리 버스정류장 앞|12|37.542579|127.063308
ST-113|515. 광양중학교 앞|15|37.530235|127.086830
ST-114|516. 광진메디칼 앞|10|37.548404|127.069366
ST-234|518. 청계천 박물관 앞|20|37.571525|127.035354
ST-235|519. 양지사거리|20|37.566993|127.029914
ST-236|520. 상왕십리역 4번 출구 앞|7|37.563858|127.030319
ST-237|521. 왕십리역 11번 출구 앞|14|37.561447|127.034919
ST-238|522. 금호역 1번출구 앞|9|37.548641|127.016426
ST-239|523. 옥수동성당 옆|7|37.543663|127.014060
ST-240|524. 래미안금호하이리버 아파트 102동 옆|10|37.552200|127.025054
ST-241|525. 한양대병원사거리|20|37.558052|127.040351
ST-242|526. 용답토속공원 앞|10|37.563510|127.056724
ST-243|529. 장한평역 8번 출구 앞|8|37.561370|127.063659
ST-244|530. 청계벽산아파트 앞|9|37.568748|127.030403
ST-245|533. 금남시장 교차로|7|37.548149|127.021087
ST-246|534. 금호사거리|10|37.548633|127.025726
ST-247|535. 응봉삼거리|11|37.553985|127.033592
ST-248|536. 행당역 2번출구 앞|8|37.557350|127.029212
ST-249|537. 한양대후문역 부근|10|37.560356|127.041397
ST-250|538. 답십리역 8번출구 앞|15|37.567649|127.051155
ST-252|539. 군자교교차로|10|37.559795|127.074203
ST-253|540. 군자역 7번출구 베스트샵 앞|8|37.556030|127.078643
ST-254|542. 강변역 4번출구 뒤|19|37.535823|127.094161
ST-255|543. 구의공원(테크노마트 앞)|20|37.535968|127.094673
ST-256|544. 광남중학교|10|37.540729|127.102905
ST-257|546. 잠실대교북단 교차로|8|37.532478|127.085090
ST-258|548. 자양나들목|20|37.529769|127.074859
ST-259|549. 아차산역 3번출구|10|37.551223|127.089706
ST-251|550. 서울시설공단 앞|20|37.571640|127.035659
ST-377|551. 구의삼성쉐르빌 앞|13|37.540061|127.094497
ST-378|552. 대림아크로리버 앞|9|37.536579|127.092971
ST-379|553. 중곡 성원아파트 앞|19|37.571254|127.079803
ST-381|555. 구의3동주민센터|9|37.537849|127.092170
ST-357|556. 달맞이공원|14|37.542053|127.020401
ST-358|557. 도선동 주민센터 앞|10|37.567642|127.025695
ST-359|558. 성동광진 교육지원청 앞|20|37.564605|127.036521
ST-360|559. 왕십리역 4번 출구 건너편|13|37.561096|127.036796
ST-361|560. 비전교회 앞|8|37.551204|127.068931
ST-362|561. 서울숲역 2번출구 앞|10|37.542816|127.044670
ST-363|562. 군자지하보도 앞|10|37.559246|127.073410
ST-364|563. 성동세무서 건너편|10|37.547912|127.062751
ST-365|564. 금호역 3번출구|10|37.547927|127.015571
ST-366|565. 옥수역 3번출구|19|37.541366|127.017761
ST-368|567. 성수역 2번출구 앞|15|37.544590|127.057083
ST-369|568. 청계8가 사거리 B|14|37.571102|127.023559
ST-370|569. 응봉현대아파트 정류소|10|37.549583|127.030242
ST-382|571. 세종대학교 대양AI센터|20|37.550395|127.075859
ST-384|573. 구의문주차장 앞|10|37.545230|127.084732
ST-386|575. 대원중고교 입구(대하빌딩)|10|37.564292|127.086936
ST-387|576. 광나루역 3번 출구|10|37.544830|127.104263
ST-388|577. 광진청소년수련관|10|37.546546|127.106132
ST-371|578. 성동세무서 부근|8|37.548290|127.062461
ST-372|579. 마장역 4번출구|8|37.565204|127.041847
ST-375|582. 경일중학교 앞|10|37.543178|127.049079
ST-376|583. 청계천 생태교실 앞|25|37.567970|127.046890
ST-445|584. 광진광장 교통섬|20|37.547828|127.072631
ST-446|585. 성수2가1동 공영주차장 인근|9|37.536808|127.055488
ST-447|586. 마장동 주민센터|10|37.565940|127.045394
ST-482|587. 유니베라 앞|10|37.545417|127.052642
ST-483|588. 뚝섬 유원지역|20|37.532688|127.067497
ST-506|589. 성수역3번출구|8|37.544158|127.056655
ST-972|590. 건국대학교 (입학정보관)|20|37.539890|127.073364
ST-973|591. 건국대학교 (행정관)|5|37.542778|127.075370
ST-974|592. 건국대학교 학생회관|30|37.541912|127.077636
ST-980|593.자양중앙나들목|8|37.528453|127.078033
ST-967|594. 중랑물재생센터(서울새활용플라자)|15|37.558303|127.058059
ST-260|600. 휘경2동 주민센터|10|37.589912|127.068679
ST-261|601. 용신동주민센터|10|37.575946|127.037361
ST-262|602. 장안동 사거리|10|37.572174|127.071388
ST-265|605. 신설동역8번출구|8|37.574199|127.026496
ST-266|606. 휘경공고앞|15|37.584625|127.070289
ST-267|607. 신이문역 2번출구|15|37.602710|127.067863
ST-268|608. 전농삼성아파트|10|37.581310|127.055343
ST-269|609. 제기2교|30|37.587745|127.037384
ST-270|610. 동대문중 교차로|10|37.573085|127.052162
ST-271|612. 시립동부병원 앞 사거리|20|37.573665|127.030815
ST-272|613. 신설동역 10번출구 앞|8|37.575271|127.023468
ST-273|614. 용두동 사거리|23|37.577686|127.031013
ST-274|615. 용두동 래미안허브리츠아파트 앞|25|37.576381|127.035110
ST-275|616. 서울시립대 정문 앞 A|10|37.582561|127.054367
ST-276|617. 청솔우성아파트 앞|20|37.574203|127.057693
ST-389|621. 전농초등학교 건너편|8|37.574890|127.053535
ST-390|622. 전농사거리 교통섬|15|37.577793|127.057830
ST-391|623. 서울시립대 정문 앞 B|25|37.583698|127.053855
ST-392|624. 전농동 동아아파트 앞|10|37.574188|127.045890
ST-394|626. 군자교 서측 녹지대|17|37.561153|127.070968
ST-395|627. 장안동삼거리 교통섬|10|37.578632|127.071907
ST-396|628. 휘봉고등학교 앞|15|37.586814|127.067543
ST-397|630. 동대문구 보건소|15|37.574851|127.040306
ST-398|631. 답십리역 1번출구|15|37.568183|127.051277
ST-400|633. 청량리 기업은행 앞|8|37.580406|127.044822
ST-401|634. 외국어대 정문 앞|24|37.596019|127.059829
ST-402|635. 시조사 앞|12|37.587516|127.052772
ST-403|636. 세종대왕기념관 교차로|9|37.590900|127.042587
ST-404|637. KAIST 경영대학 앞|10|37.591613|127.045791
ST-405|638. 서울시립대 정보기술관|10|37.583007|127.060974
ST-406|639. 서울시립대 후문|14|37.585124|127.060951
ST-407|640. 동대문경찰서 교차로|6|37.582550|127.044601
ST-408|641. 용두역 4번출구|10|37.573753|127.038536
ST-409|642. 신답역 사거리|9|37.570354|127.048431
ST-410|643. 동대문구민체육센터 (육교아래)|10|37.566970|127.074295
ST-1298|646. 장한평역 1번출구|10|37.561965|127.064506
ST-1300|648. 장안동위더스빌옆|15|37.566699|127.062423
ST-1302|650. 중랑교사거리|20|37.591533|127.067741
ST-1447|652. 답십리 래미안엘파인아파트 입구|10|37.576530|127.065940
ST-1449|654. 전농동 텃골공원|10|37.577621|127.052108
ST-1628|656. 영휘원 교차로|10|37.587238|127.043136
ST-1629|657. 동대문롯데캐슬아파트 앞|13|37.575733|127.048477
ST-1631|659. 제기동역 1번출구|25|37.578350|127.033386
ST-1632|660. 동의보감타워|10|37.577999|127.037628
ST-1625|661. 경희대학교 청운관|15|37.594600|127.051971
ST-1671|663. 외대앞역 3번출구|10|37.594890|127.063026
ST-1758|664. 서울시립대 건설공학관|10|37.584129|127.057937
ST-2265|665.이문동 쌍용아파트 정문|11|37.599605|127.068641
ST-2266|666.이문대성유니드아파트 앞|20|37.603622|127.070831
ST-2267|667.청량차도 육교 밑|7|37.586708|127.046882
ST-2268|668.서울축산농협(장안지점)|10|37.567871|127.068717
ST-2269|669.청계한신휴플러스앞 삼거리|10|37.572147|127.044609
ST-2270|670.삼육서울병원 버스정류장|9|37.589687|127.061409
ST-2271|671.대광빌딩|10|37.577342|127.023376
ST-2272|672.대광고등학교|17|37.578750|127.024024
ST-2273|673.안암골벽산아파트(후문)|10|37.584079|127.031036
ST-2274|674.고대앞사거리 교통섬|15|37.586551|127.033142
ST-2276|676.FITI시험연구원 앞|9|37.581432|127.035476
ST-2278|678.장안힐스테이트(아) 앞|21|37.576557|127.074310
ST-2279|679.전농SK아파트 앞|10|37.577877|127.061683
ST-2280|680.꿈마루어린이도서관 앞|22|37.592384|127.057411
ST-2281|681.서울특별시 동부교육지원청(육교)|14|37.579837|127.056373
ST-309|701. 목동사거리 부근|8|37.532802|126.863929
ST-310|702. 목4동주민센터 옆|19|37.532543|126.868728
ST-311|703. 오목교역 7번출구 앞|12|37.523628|126.875244
ST-312|704. 남부법원검찰청 교차로|14|37.523254|126.864906
ST-313|706. 신정네거리역|15|37.521881|126.851753
ST-315|708. 서울출입국관리사무소 앞|16|37.518970|126.869964
ST-316|709. 신정3동 현장민원실 앞|20|37.511585|126.841560
ST-317|710. 금옥여고보도육교|10|37.509712|126.844169
ST-318|711. 신일해피트리아파트 앞|20|37.517059|126.848487
ST-319|712. 강월초교입구 사거리|14|37.516998|126.838317
ST-320|713. 양서중학교 옆|20|37.533046|126.829956
ST-321|714. 한국SGI 양천문화회관 앞|10|37.532547|126.830802
ST-428|716.신정6동 주민센터 인근|23|37.517318|126.864318
ST-431|719. 홍익병원앞 교차로|10|37.530368|126.864257
ST-432|720. 서울강월초등학교 앞|10|37.516197|126.834899
ST-993|722. 경서농협 버스정류장(우리은행신정동지점방향)|10|37.521511|126.857383
ST-994|723. SBS방송국|15|37.529163|126.872749
ST-995|724. 계남공원 입구 주출입구 좌측|10|37.510597|126.857322
ST-996|725. 양강중학교앞 교차로|15|37.524333|126.850547
ST-997|726. 목동3단지 시내버스정류장|18|37.534389|126.869598
ST-1000|729. 서부식자재마트 건너편|10|37.510379|126.866798
ST-1002|731. 서울시 도로환경관리센터|10|37.529899|126.876541
ST-1003|732. 신월중학교|10|37.539550|126.828300
ST-1004|733. 신정이펜하우스314동|10|37.514099|126.831001
ST-1005|734. 신트리공원 입구|10|37.513950|126.856056
ST-1006|735. 영도초등학교|10|37.536376|126.871513
ST-1007|736. 오솔길공원|10|37.522190|126.836700
ST-1008|737. 장수공원|10|37.522560|126.849479
ST-1010|739. 신월사거리|15|37.536201|126.827796
ST-1011|740. 으뜸공원|8|37.536369|126.831710
ST-1012|741. 화곡로 입구 교차로|10|37.539520|126.825401
ST-1013|742. 등촌역 5번 출구 뒤|10|37.550731|126.864578
ST-1014|743. 현대6차아파트 101동 옆|10|37.508899|126.842681
ST-1015|744. 신목동역 2번 출구|40|37.543842|126.882545
ST-1016|745. 강서초등학교|10|37.522281|126.839698
ST-1017|746. 목동2단지 상가|10|37.536502|126.877746
ST-1018|747. 목동3단지 상가|10|37.534580|126.875648
ST-1019|748. 목동운동장|15|37.530250|126.879302
ST-1350|749. 이대목동병원보도육교|10|37.537227|126.886611
ST-1398|750. 연의근린공원 건너편|10|37.512157|126.835624
ST-1400|752. 성원2차 아파트|10|37.542182|126.863304
ST-1495|754. 목동1단지아파트 118동 앞|10|37.541141|126.876678
ST-1496|755. 목동1단지아파트 상가 앞|7|37.537868|126.881408
ST-1497|756. 목동주차장|15|37.526679|126.876167
ST-1498|757. 신정이펜하우스 1단지아파트 입구 사거리|10|37.514278|126.828742
ST-1499|758. 한사랑교회 앞|13|37.514720|126.859199
ST-1500|759. 보아스아파트 앞|10|37.524070|126.838600
ST-1501|760. 잣절보도육교 아래|10|37.506820|126.844299
ST-1503|762. 오목로 무중력지대 앞|10|37.524742|126.877662
ST-1504|763. 목동11단지 아파트|10|37.510658|126.859161
ST-1731|765. 오목교역 3번출구|12|37.524776|126.875480
ST-1736|766. 신목동역 3번출구|15|37.543949|126.883461
ST-1993|767.신정숲속마을아파트|10|37.505744|126.836311
ST-1994|768.목동5단지아파트 501동|15|37.535667|126.881584
ST-1995|769.CBS방송국 앞|20|37.527854|126.874671
ST-1996|770.목동역5번출구 교통정보센터 앞|15|37.525714|126.864868
ST-1997|771.목동아파트 703동 앞|8|37.528205|126.870162
ST-1999|773.염창역 3, 4번 출구 사이|10|37.546707|126.874572
ST-2000|774.등촌역 4번 출구 |11|37.549507|126.867218
ST-2001|775.세종그랑시아 앞(102동)|10|37.538375|126.863830
ST-2002|776.목마공원|15|37.538742|126.885681
ST-2003|777.신월6차보람아파트 앞|10|37.530128|126.834777
ST-2005|779. 신정1동 주민센터 앞|20|37.518543|126.853881
ST-2006|780.신정교 하부|15|37.517337|126.877647
ST-2007|781.신정보도육교 아래|15|37.517593|126.876556
ST-2008|782.서남병원 후문|20|37.511672|126.832740
ST-2011|785.양천구청, 보건소 사잇길|24|37.517475|126.866325
ST-2012|786.목동아파트 8단지 상가동 앞|9|37.520072|126.868301
ST-2013|787.양천아파트 입구|14|37.507904|126.862648
ST-2014|788.양천구청역 2번출구 옆|15|37.512287|126.865280
ST-2016|791.현대하이페리온|15|37.524906|126.869789
ST-2017|792.목동트라팰리스 웨스턴에비뉴|20|37.525371|126.870925
ST-2039|793.목동5단지아파트 534동|15|37.533020|126.877899
ST-2395|794.양천문화회관|10|37.516864|126.862960
ST-2396|795.양천 해누리타운|22|37.515842|126.864112
ST-2397|796.목동아파트 14단지 B상가 앞|10|37.514663|126.871940
ST-2398|797.목동아파트 1422동 1434동 사잇길|10|37.515155|126.872489
ST-322|800. 목월공원 앞|15|37.532432|126.954742
ST-324|802. 한강진역 2번 출구 앞|9|37.541152|127.002212
ST-325|803. 한남초교 앞 보도육교|10|37.538139|127.004096
ST-326|805. 문배어린이공원 앞|9|37.536758|126.970001
ST-327|806. 전자랜드 본관 앞|20|37.533065|126.960731
ST-328|807. 서울역 12번 출구 앞|10|37.552276|126.972686
ST-329|808. 서빙고동 금호맨션 앞|10|37.520504|126.989738
ST-330|809. 한남 유수지 복개주차장|10|37.530166|127.007438
ST-331|810. 이태원지하보도|10|37.538410|126.986648
ST-332|811. 녹사평역1번출구|20|37.535079|126.985382
ST-333|812. 용산전쟁기념관|10|37.534839|126.977661
ST-334|813. 삼각지역 3번출구|20|37.533512|126.972274
ST-335|815. LIG강촌아파트 103동앞|30|37.518508|126.978797
ST-435|816. 신용산역 6번출구 앞|25|37.530147|126.968482
ST-436|817. 삼각지역 4번출구 앞|9|37.533451|126.971733
ST-437|818. 숙명여대 입구 교차로|12|37.544895|126.969383
ST-438|819. 선린인터넷 고등학교|12|37.541652|126.970504
ST-439|820. 청파동입구 교차로|10|37.549026|126.971946
ST-440|822. 이촌1동 마을공원|10|37.522026|126.966186
ST-441|823. 효창동주민센터 앞|10|37.542320|126.961959
ST-442|825. 서빙고동 주민센터 앞|15|37.520336|126.994262
ST-946|826. 서울역 서부교차로2|20|37.555366|126.968643
ST-1324|827. 국군복지단|14|37.541885|126.979660
ST-1325|828. 숙대입구역 8번|7|37.544078|126.972000
ST-1326|829. 한강대교 북단 교차로|40|37.522930|126.961692
ST-1327|830. 강변삼성스위트아파트 앞|10|37.534423|126.948570
ST-1328|831. 이태원관광특구입구A(녹사평역쪽)|10|37.534278|126.988563
ST-1339|832. 이촌1동 주민센터 뒤|20|37.521282|126.973464
ST-1341|834. 효창공원앞역 3번출구 뒤|15|37.539009|126.961380
ST-1342|835. 남영역 건너편|9|37.541980|126.971542
ST-1343|836. 현대자동차서비스 앞|15|37.531421|126.951499
ST-1344|837. 한남나들목 입구|10|37.528987|127.006622
ST-1376|838. 숙대입구역 4번출구|8|37.544460|126.972389
ST-1441|839. 보광동 삼성리버빌아파트 앞|10|37.524009|127.001449
ST-1442|840. 용산 파크타워 앞|10|37.523651|126.970268
ST-1443|841. 신용산역 1번 출구|25|37.529609|126.968872
ST-1445|843. 이태원관광특구B(용산구청쪽)|19|37.533798|126.988670
ST-1446|844. 이촌2동 동원베네스트 아파트 앞|15|37.527149|126.955162
ST-1615|845. 용산 선인상가|16|37.532699|126.964378
ST-1721|846. 용산중학교|15|37.546501|126.980949
ST-2172|848. 삼각지12번 출구|10|37.534889|126.975624
ST-2173|849. 삼각지 자이아파트|20|37.536079|126.973419
ST-2174|850. KCC용산월츠타워 |15|37.537399|126.968925
ST-2175|851.효창 푸르지오 앞|10|37.540477|126.958114
ST-2176|852. 청암자이아파트 앞|30|37.534526|126.947181
ST-2177|853.용산역 맞은편|19|37.528488|126.965843
ST-2178|854.HID 유족동지회 앞|10|37.538509|127.001480
ST-2179|855.이촌역5번출구 앞|10|37.522724|126.972770
ST-2181|857. 현대 안성타워|10|37.535087|126.997970
ST-2182|858.녹사평역3번 출구|10|37.534408|126.986892
ST-2183|859.남산공원 야외식물원 앞|10|37.541885|126.995864
ST-2184|860.LG한강 자이아파트 앞|22|37.520748|126.970825
ST-2187|863.이촌역2번 출구|10|37.521770|126.977005
ST-2188|864.순천향대학병원(한남오거리)|10|37.535140|127.006004
ST-2189|865.하얏트호텔 앞|10|37.540794|126.997848
ST-2190|866.브라운스톤 남산아파트|10|37.551548|126.976860
ST-2191|867.서빙고역 광장(1번출구)|10|37.519908|126.989234
ST-2239|869.노들섬 동측 앞|10|37.517295|126.959144
ST-2240|870.노들섬 서측 앞|10|37.517318|126.958297
ST-448|900. 은평예술회관|20|37.603942|126.927696
ST-450|902. 진관동 은빛초등학교|10|37.643108|126.918220
ST-451|903. 은평뉴타운 아이파크|19|37.645866|126.927391
ST-452|904. 은평뉴타운 푸르지오|16|37.648674|126.930702
ST-453|905. 구파발역 2번출구|10|37.636234|126.918998
ST-454|906. 연신내역 5번출구|9|37.617210|126.919578
ST-455|907. CJ 드림시티|10|37.599491|126.916862
ST-456|908. 구산역 4번출구|10|37.613185|126.917350
ST-457|909. 백련산 힐스테이트 3차|10|37.586994|126.922882
ST-459|911. 은평평화공원(역촌역4번출구)|10|37.605583|126.922935
ST-460|912. 응암오거리|20|37.589660|126.916946
ST-461|913. 이마트 버스정류장(서부경찰서 방면)|15|37.600700|126.920127
ST-462|914. 새절역 2번출구|20|37.590797|126.913650
ST-463|915. 증산역 4번출구|10|37.584381|126.909896
ST-464|916. 평생학습관 앞|13|37.607849|126.921325
ST-465|917. 녹번역 3번출구|10|37.600761|126.935371
ST-467|919. 서울혁신파크|10|37.607025|126.933311
ST-469|921. 신도고등학교|8|37.630016|126.919029
ST-470|922. 연신내역 4번출구|10|37.617801|126.921966
ST-471|923. 국민은행 연서지점|10|37.620948|126.925636
ST-472|924. 메뚜기다리|12|37.628517|126.929580
ST-473|925. 불광역 2번출구|8|37.609565|126.930976
ST-475|927. 연신내역 3번출구 인근|10|37.617855|126.922523
ST-476|928. 은평역사한옥박물관|15|37.641315|126.938041
ST-478|930. 구 서부경찰서 건너편|7|37.601661|126.920303
ST-479|931. 역촌파출소|19|37.604736|126.915336
ST-480|932. 예일여중|20|37.610004|126.916397
ST-481|933. 역촌종합시장 버스정류장(예일여고 방면)|15|37.612483|126.914878
ST-1020|934. 신사동 성당|10|37.597141|126.909599
ST-1023|937. 상림마을 롯데캐슬2단지 옆|10|37.645851|126.923797
ST-1024|938. 금암 문화공원|10|37.644683|126.918457
ST-1025|939. 은평구청 교차로|15|37.601699|126.927421
ST-1027|941. 은평뉴타운 도서관|13|37.637222|126.933303
ST-1028|942. 상림마을 생태공원|9|37.644081|126.929283
ST-1029|943. 은평구청 보건소|10|37.602401|126.928649
ST-1031|945. 기자촌 사거리 A|10|37.634140|126.932342
ST-1032|946. 독바위역 |16|37.618438|126.932884
ST-1033|947. 연신내 선일하이츠빌 정류소|10|37.622669|126.919990
ST-1034|948. 디지털미디어 시티역 4번출구(DMC역)|10|37.577201|126.902351
ST-1035|949. 연신내역 1번 출구 |6|37.619781|126.920806
ST-1036|950. 구산역 2번 출구 예일여고 버스정류장|10|37.609802|126.916793
ST-1038|952. 서울연신중학교|10|37.622650|126.925247
ST-1039|953. 서울연신초등학교|10|37.625778|126.928817
ST-1329|954. 은평뉴타운구파발9단지|10|37.642608|126.921478
ST-1331|956. 응암시장교차로|9|37.594413|126.918014
ST-1479|958. 본 서부병원 버스정류장(은평 세무서 방면)|13|37.600360|126.922813
ST-1480|959. 구파발10단지 인근|10|37.643661|126.914558
ST-1481|960. 구파발역 환승센터|15|37.638252|126.919456
ST-1482|961. 불광역 9번 출구|8|37.610969|126.929809
ST-1483|962. 은평뉴타운 힐데스하임|10|37.639259|126.918907
ST-1484|963. 대호프라자아파트|13|37.614429|126.932579
ST-1485|964. 북한산힐스테이트 7차아파트|10|37.616542|126.925125
ST-1486|965. 서울특별시 은평병원|10|37.593479|126.923187
ST-1487|966. 서울혁신파크1|10|37.609447|126.934677
ST-1488|967. 서울혁신파크2|13|37.608497|126.931999
ST-1489|968. 은평뉴타운 상림마을 13단지|7|37.642089|126.929412
ST-1490|969. 은평 지웰테라스|9|37.643394|126.932136
ST-1674|971. 역촌 센트레빌 아파트|20|37.602329|126.906547
ST-2241|973.제각말푸르지오 5-1단지 아파트|10|37.637348|126.935844
ST-2242|974.연신초등학교옆 마을마당|10|37.626720|126.929016
ST-2243|975.백련산 힐스테이트상가앞|10|37.590362|126.923011
ST-2244|976.진관고등학교앞|10|37.643508|126.924102
ST-2245|977.신도중학교앞|10|37.633102|126.931503
ST-2246|978.녹번 힐스테이트상가앞|10|37.601009|126.935928
ST-2247|979.원풍빌라앞|10|37.591861|126.906082
ST-2250|982. 녹번초등학교(서오릉로)|10|37.604125|126.925086
ST-2252|984.상신초등학교앞 버스정류장|9|37.595809|126.910263
ST-2253|985. 은평세무서 버스정류장(은평구청 방면)|10|37.601192|126.926383
ST-2257|989. 신응교(가좌로) 앞|10|37.591812|126.914833
ST-2259|991.흥국사 정류장|10|37.656768|126.942008
ST-2260|992.북한산입구 정류장|10|37.658287|126.945297
ST-2261|993.은평뉴타운 은뜨락아파트앞|15|37.630287|126.919563
ST-2262|994.북한산생태공원입구(교통섬)|10|37.610507|126.938537
ST-2263|995.은평다목적체육관|10|37.631408|126.925407
ST-2264|996.응암역2번출구 국민은행 앞|10|37.599967|126.915725
ST-485|1001. 광진교 남단 사거리(천호공원 방면)|15|37.541793|127.124748
ST-486|1002. 해공공원(천호동)|10|37.545265|127.125938
ST-487|1003. 해공도서관앞|20|37.543956|127.125488
ST-488|1004. 삼성광나루아파트 버스정류장|10|37.553329|127.128868
ST-490|1006. 롯데캐슬 115동앞|10|37.554866|127.142799
ST-491|1007.암사동 선사유적지|14|37.559558|127.130874
ST-492|1008. 암사역 3번출구(국민은행앞)|9|37.549354|127.127082
ST-493|1009. 천호역4번출구(현대백화점)|20|37.538665|127.124244
ST-494|1010. 강동세무서|20|37.534507|127.138404
ST-495|1011. LIGA 아파트 앞|20|37.534744|127.135284
ST-496|1012. 천호역효성해링턴타워 앞|15|37.536006|127.122726
ST-497|1013. 강동구청역 1번 출입구|15|37.530715|127.120986
ST-499|1015. 샛마을 근린공원|13|37.550037|127.146911
ST-500|1016. 해뜨는 주유소옆 리엔파크 109동앞|10|37.559398|127.171180
ST-501|1017. 둔촌고교입구 교차로(길동주민센터 방면)|20|37.535446|127.145187
ST-830|1018. 둔촌 주공 GS 맞은편|15|37.524589|127.135421
ST-502|1019. 다성이즈빌아파트(호원대 대각선 맞은편)|10|37.526794|127.130058
ST-503|1020. 강동경찰서|15|37.528251|127.126800
ST-504|1021. 강일동 리슈빌 빌딩앞|15|37.564273|127.173973
ST-505|1022. 길동 사거리(초소앞)|20|37.533779|127.137992
ST-1040|1023. 한국종합기술사옥 앞|22|37.549983|127.174705
ST-1041|1024.  강동구청 앞|10|37.529296|127.123153
ST-1042|1025. 상일초등학교|10|37.546840|127.172515
ST-1044|1027. 프라자 아파트 앞|20|37.535961|127.147819
ST-1045|1028. 포레스 주상복합 빌딩|10|37.533107|127.122772
ST-1046|1029. 성내어울터|7|37.536556|127.125534
ST-1047|1030. 미호 플랜트 앞|15|37.527030|127.122062
ST-1049|1032. 선사고등학교|20|37.556728|127.136260
ST-1050|1033. 고덕동 아남아파트|17|37.557933|127.144767
ST-1051|1034. 고덕동 래미안 힐스테이트|10|37.561878|127.150787
ST-1053|1036. 고덕동 주양쇼핑|10|37.551990|127.153312
ST-1054|1037. 강일리버파크 6단지|10|37.562564|127.177612
ST-1055|1038. 강일 다솜 어린이 공원|10|37.568637|127.174804
ST-1056|1039. 고덕초등학교|7|37.561298|127.167846
ST-1058|1041. 묘곡초등학교|10|37.559162|127.153320
ST-1059|1042. 강일리버파크 2~5단지|10|37.568546|127.177009
ST-1061|1044. 굽은다리역|15|37.545406|127.142677
ST-1370|1048. 둔촌어린이공원|13|37.530994|127.142372
ST-1371|1049. 강일리버파크 10단지|10|37.561203|127.180267
ST-1420|1050.  둔촌역 3번 출입구|15|37.526782|127.135574
ST-1421|1051. 강일중,선사고 버스정류장(신암중학교 방면)|15|37.554836|127.137321
ST-1594|1053. 동명근린공원 진입로 (아리수로)|11|37.562545|127.164482
ST-1595|1054. 말우물 어린이 공원|5|37.560028|127.169677
ST-1597|1056. 강일리버파크 7~11단지|10|37.563354|127.179054
ST-1598|1057. 능골근린공원|15|37.555809|127.173744
ST-1623|1058. 고덕숲 아이파크 1|12|37.553482|127.165054
ST-1626|1059. 래미안 강동팰리스(102동)|15|37.538227|127.131744
ST-1620|1060. 천일초교 사거리|6|37.544670|127.132675
ST-1621|1061. 천호초교 입구 사거리(일주빌딩)|8|37.546897|127.134666
ST-1622|1062. 고덕숲 아이파크 2|10|37.551078|127.162597
ST-1762|1063.강동롯데캐슬퍼스트 아파트(관리동)|10|37.556663|127.142738
ST-1763|1064.중앙보훈병원역 1번출구|10|37.527793|127.147644
ST-1764|1065.보훈병원 후문옆(더 원커피)|10|37.531208|127.149269
ST-1765|1066.생태공원앞 교차로(조명탑)|10|37.537765|127.152015
ST-1766|1067.한영중고앞사거리|10|37.549034|127.156051
ST-1767|1068.명일파출소|10|37.553649|127.156227
ST-1831|1070.(시립)고덕평생학습관|10|37.555702|127.157920
ST-1833|1072.고덕역 5번출구|22|37.554862|127.153724
ST-1834|1073. SSTS 몰 앞|7|37.541145|127.141052
ST-1835|1074.대명초교입구 사거리|15|37.546836|127.149162
ST-1836|1075.천동초교 삼거리|10|37.541362|127.137184
ST-1837|1076. 천동초교입구사거리 버스정류장(십자성마을 방면)|10|37.539894|127.141036
ST-1838|1077.강동역 1번출구 앞|15|37.536270|127.132469
ST-1839|1078.둔촌사거리|25|37.521976|127.133621
ST-1840|1079.강일동입구교차로|10|37.561843|127.170845
ST-1841|1080.엘웨딩|10|37.536830|127.128417
ST-1842|1081.트레빌빌딩|20|37.536998|127.129531
ST-1843|1082.중앙보훈병원역3번출구|10|37.529560|127.149009
ST-1844|1083.광문고교사거리(아이파크)|15|37.560367|127.156593
ST-1687|1084. 윤선생빌딩(JYP사옥)|20|37.523929|127.129127
ST-1845|1085.래미안 솔베뉴(고덕로)|20|37.554569|127.145874
ST-1846|1086.래미안 솔베뉴(구천면로)|10|37.550598|127.145454
ST-1848|1088.풍납사거리(강동)|12|37.528121|127.119522
ST-1849|1089.고덕 래미안힐스테이트(201동)|10|37.560600|127.146698
ST-1850|1090.상일동역 2번출구 앞|17|37.556789|127.166145
ST-507|1101. 상사마을 버스정류장(아라대교방면)|10|37.581611|126.798599
ST-508|1102. 방화사거리 마을버스 버스정류장|10|37.573642|126.811805
ST-831|1103. 방화역 4번출구앞|10|37.577106|126.811996
ST-509|1105. 방화근린공원|10|37.581623|126.812652
ST-824|1106. 신방화사거리|10|37.572563|126.816421
ST-510|1108. 공항시장역 2번출구 뒤|8|37.563873|126.810607
ST-511|1109. 공항시장역 4번출구|6|37.563346|126.810485
ST-828|1110. 공항중학교앞|15|37.562202|126.816246
ST-512|1111. 마곡엠밸리6_7단지 마곡중학교|20|37.566982|126.821800
ST-513|1112. 마곡엠밸리4단지 정문|15|37.568576|126.824775
ST-514|1113. 서남환경공원 버스정류장|15|37.573123|126.822387
ST-834|1117. 등촌5단지아파트 버스정류장|10|37.558197|126.844261
ST-516|1118. 증미역 3번출구뒤(등촌두산위브센티움오피스텔)|10|37.557460|126.861457
ST-517|1119. 염창동 한마음아파트 앞|6|37.554252|126.867561
ST-518|1120. 대림경동아파트앞|25|37.564785|126.854644
ST-519|1121. 가양레포츠센터 앞|15|37.559478|126.864379
ST-520|1122. 황금내근린공원|17|37.561923|126.864166
ST-522|1124. 발산역 6번 출구 뒤|6|37.558177|126.838455
ST-835|1125. 명덕고교입구(영종빌딩)|18|37.552913|126.836570
ST-523|1126. 우장산역 1번출구옆(우장산아이파크105동앞)|7|37.548908|126.836563
ST-524|1127. 화곡역 버스정류장|10|37.540981|126.838546
ST-829|1128. 화곡역 6번출구|10|37.541412|126.840225
ST-525|1129. 화곡역 1번 출구 앞|7|37.542099|126.840217
ST-526|1130. 화곡본동시장 버스정류장|7|37.542751|126.842620
ST-528|1132. 등촌역 7번출구|10|37.551109|126.863708
ST-530|1135. 강서구의회|16|37.546531|126.862548
ST-531|1136. 등촌2파출소|8|37.544788|126.861999
ST-532|1137. 등촌2동주민센터|10|37.541263|126.863372
ST-533|1139. 용문사 버스정류장|8|37.538520|126.863433
ST-534|1140. 목동사거리 버스정류장|17|37.531398|126.863609
ST-535|1141. 곰달래 문화복지센터 A|20|37.529060|126.848480
ST-536|1145. 곰달래 문화복지센터 B|10|37.528919|126.848083
ST-538|1148. 볏골공원|10|37.541469|126.844779
ST-975|1149. 신방화역환승주차장|13|37.567283|126.818275
ST-1062|1150. 송정역 1번출구|7|37.561531|126.810699
ST-1063|1151. 마곡역1번출구|25|37.560207|126.824142
ST-1064|1152. 마곡역교차로|30|37.558311|126.826522
ST-1065|1153. 발산역 1번, 9번 인근 대여소|32|37.558948|126.837173
ST-1067|1155. 기쁜우리복지관|10|37.569259|126.848419
ST-1069|1157. 강서구청|8|37.550659|126.849769
ST-1249|1158. 가양역 8번출구|20|37.561035|126.854812
ST-1250|1159. 서서울모터리움 앞|20|37.565853|126.846595
ST-1251|1160. 양천향교역 7번출구앞|20|37.567680|126.840896
ST-1252|1161. 강서면허시험장 앞|10|37.549694|126.819664
ST-1253|1162. 공항초등학교건너편|10|37.562679|126.820472
ST-1254|1163. 방화동강서기동대앞|10|37.570499|126.820083
ST-1338|1165. 마곡중학교 후문|20|37.568447|126.821647
ST-1351|1166. 강서구립등빛도서관|10|37.562568|126.842460
ST-1352|1167. 마곡수명산파크3단지 교차로|15|37.553508|126.825866
ST-1402|1168. 마곡엠밸리10단지 앞|14|37.560291|126.818756
ST-1506|1169. 염창역 1번 출구|8|37.547199|126.874488
ST-1507|1170. 강서구보건소|11|37.549179|126.868797
ST-1508|1171. 염창동 새마을금고 건너편|8|37.550048|126.873161
ST-1509|1172. 가양3동 주민센터|8|37.561248|126.860580
ST-1510|1173. 강서구청사거리(SH타워)|15|37.556735|126.853073
ST-1511|1174. 강서구청사거리(부민병원)|9|37.556613|126.851165
ST-1514|1177. 수명중․고교|15|37.550109|126.823677
ST-1515|1178. 개화산역 2번 출구|10|37.572471|126.806167
ST-1517|1180. 마곡엠밸리 15단지(1502동) 건너편|15|37.557468|126.829719
ST-1518|1181. 농수산식품공사 (강서지사)|10|37.551044|126.818496
ST-1519|1182. KBS 스포츠월드|20|37.556877|126.848808
ST-1520|1183. KC 대학교|10|37.548320|126.853401
ST-1645|1184. 마곡13단지|26|37.556449|126.815979
ST-1646|1185. 등촌9단지|20|37.562900|126.849472
ST-1647|1186. 송정중학교|15|37.554729|126.816093
ST-1676|1187. 강서수산물도매시장|15|37.553020|126.818367
ST-1708|1188. 롯데중앙연구소|8|37.571380|126.828338
ST-1709|1190. 마곡역 교차로(2번출구)|14|37.560501|126.826652
ST-1689|1191. 마곡역 버스정류장(마곡나루역1번출구, 웰튼병원 방면)|13|37.560241|126.827163
ST-1710|1192. 마곡수명산파크 209동 건너편|20|37.555450|126.826896
ST-1688|1193. 마곡센트럴타워 1차|51|37.559471|126.832077
ST-1712|1195. 코오롱One&Only타워|24|37.564128|126.834312
ST-1713|1196. 서울식물원(문화센터) 건너편|11|37.568241|126.835830
ST-1714|1197. 엠펠리체 호텔 건너편|20|37.560241|126.835807
ST-1715|1198. LG 사이언스파크|31|37.562549|126.827438
ST-1694|1199. 우장산역 3번출구|13|37.547821|126.836128
ST-1695|1200. 개화광역환승센터|10|37.578449|126.798973
ST-838|1201. 가락시장역 3번 출구|15|37.493179|127.118545
ST-737|1203. 밀리아나2빌딩 앞|20|37.493728|127.120620
ST-930|1204. 거여역 3번출구|10|37.493343|127.144729
ST-539|1205. 종합운동장역 4번출구|15|37.510429|127.071372
ST-540|1206. 9호선종합운동장역 9번출구|20|37.511280|127.078239
ST-738|1207. 마천중앙시장|10|37.499755|127.152503
ST-541|1208. 풍납현대아파트쉼터|25|37.529747|127.119964
ST-542|1209. 잠실나루역 (2번 출구 쪽)|20|37.520450|127.104202
ST-891|1210. 롯데월드타워(잠실역2번출구 쪽)|30|37.513126|127.100959
ST-839|1212. 송파역 2번 출구앞|10|37.499412|127.112869
ST-543|1213. 백토공원 앞|12|37.508319|127.133216
ST-740|1214. 오금역 7번 출구 인근|10|37.502593|127.127647
ST-544|1215. 올림픽공원역 1번출구 앞|15|37.516571|127.131538
ST-545|1217. 송파파인타운 7단지|15|37.479305|127.129798
ST-892|1218. 방이역 4번출구|12|37.508968|127.125839
ST-546|1220. 잠실근린공원|15|37.505691|127.084037
ST-933|1221. 삼전역 4번출구|9|37.504199|127.087532
ST-547|1222. 잠실새내역 5번 출구 뒤|23|37.511981|127.085052
ST-548|1224. 아시아지하보도 2번 출구|15|37.512168|127.078933
ST-894|1226. 잠실4동 주민센터 옆|10|37.520076|127.112365
ST-895|1227. 거여역 8번출구 뒤|10|37.493125|127.143821
ST-896|1228. 마천사거리 |10|37.497699|127.146202
ST-549|1229. 송파체육문화회관 앞|15|37.490688|127.143127
ST-897|1230. 송파중학교 정문|10|37.495670|127.130592
ST-840|1231. 잠실역 6번출구|13|37.514087|127.099029
ST-550|1232. 잠실주공 521동 건너편|10|37.511840|127.095687
ST-551|1233. 잠실3거리(갤러리아팰리스)|9|37.510509|127.093368
ST-553|1235. 잠실트리지움310동 옆|14|37.508872|127.087165
ST-899|1239. 문정 법조단지3|13|37.480842|127.118011
ST-900|1240. 문정 법조단지4|10|37.480575|127.118568
ST-901|1241. 문정 법조단지5|10|37.481239|127.119796
ST-902|1242. 문정 법조단지6|10|37.481632|127.119163
ST-903|1243. 문정 법조단지7|29|37.484531|127.120162
ST-904|1244. 문정 법조단지8|11|37.481536|127.122123
ST-905|1245. 문정 법조단지9|10|37.479465|127.125328
ST-906|1246. 문정 법조단지10|30|37.477508|127.126327
ST-907|1247. 문정 법조단지11|15|37.478820|127.123512
ST-908|1248. 방이초등학교|25|37.513961|127.121673
ST-981|1250.문정2동 주민센터|10|37.489871|127.110839
ST-1070|1251. 석촌역 2번출구|10|37.505931|127.107749
ST-1072|1253. 오금역 3번 출구 뒤|10|37.501651|127.128181
ST-1075|1256. 문정현대아파트 교차로|8|37.491130|127.125808
ST-1076|1257. 가락시장역 사거리|20|37.492099|127.117752
ST-1077|1258. 가락미륭아파트 앞|10|37.493198|127.128997
ST-1078|1259. 방이역 1번출구|20|37.508983|127.126594
ST-1079|1260. 방이동 한양3차아파트 옆|8|37.506301|127.121398
ST-1081|1262. 송파여성문화회관 앞|10|37.505802|127.109718
ST-1082|1263. 장지공영차고지|10|37.480541|127.137016
ST-1083|1264. 천호역 10번 출구 앞|8|37.538581|127.122802
ST-1084|1265. 문정동 근린공원|10|37.485988|127.124763
ST-1085|1266. 문정동 글샘 공원|10|37.478809|127.120002
ST-1086|1267. 올림픽공원 남2문 앞|14|37.514240|127.123069
ST-1087|1268. 몽촌토성역 1번출구 옆|15|37.517288|127.114196
ST-1088|1269. 리센츠아파트 |10|37.511943|127.091217
ST-1089|1271. 송파도서관|15|37.499984|127.135391
ST-1092|1274. 영파여고 앞|20|37.532848|127.121047
ST-1367|1275. 거여초등학교 옆|15|37.504589|127.139366
ST-1408|1277. 성내7교|15|37.505626|127.136421
ST-1409|1278. 송파구청 교차로|16|37.515796|127.106819
ST-1410|1279. 마천금호어울림 1차아파트 건너편|10|37.497516|127.154678
ST-1411|1280. 송파파크데일 2단지입구 앞 주차장|13|37.495658|127.157173
ST-1413|1282. 송파소방서 맞은편(성내4교)|10|37.499874|127.141479
ST-1414|1283. 오금공원 사거리|8|37.505413|127.131690
ST-1416|1285. 위례별 유치원 뒤|10|37.477470|127.144592
ST-1417|1286. 위례중앙푸르지오 1단지 앞|10|37.474376|127.140670
ST-1418|1287. 위례아이파크 101동 맞은편|8|37.477466|127.141510
ST-1419|1288. 문정중교 사거리|15|37.487998|127.131088
ST-1422|1289. 풍납토성 서성벽터B|10|37.531471|127.111091
ST-1579|1290. 위례송파꿈에그린아파트24단지 앞 성벽 다리 밑|10|37.474582|127.137542
ST-1580|1291. 서울체육고등학교 앞|10|37.521938|127.131866
ST-1582|1293. 석촌호수 서호 사거리|14|37.506561|127.096557
ST-1584|1295. 잠실역 8번출구|8|37.513961|127.100303
ST-1585|1296. 석촌호수교차로 (송파나루근린공원 앞)|10|37.508678|127.103431
ST-1586|1297. 석촌호수교차로(동호 팔각정 앞)|15|37.509201|127.104118
ST-1588|1299. 송파소방서 (방이119안전센터)|15|37.519878|127.136711
ST-1589|1300. 오륜사거리|15|37.506938|127.139221
ST-825|1302. 한성대입구역6번출구 뒤|5|37.588764|127.006309
ST-931|1303. 돈암초교 입구|10|37.591693|127.012496
ST-826|1304. 만해공원|10|37.594402|126.992309
ST-947|1305. 성북구청|15|37.589328|127.016433
ST-842|1306. 한성대입구역2번출구|10|37.588447|127.006706
ST-827|1308. 안암로터리 버스정류장 앞|16|37.582592|127.028976
ST-559|1314. 정릉꿈에그린1단지 201동 앞|8|37.602439|127.011688
ST-560|1315. 고려사대부속중고 정문|10|37.607761|127.003280
ST-562|1316. 고려사대부속중고 건너편 |10|37.607261|127.002838
ST-563|1318. 길음역 3번출구 뒤|14|37.603084|127.024787
ST-564|1319. 종암사거리 분수대|10|37.603042|127.033271
ST-655|1321. 국민은행 종암동지점 앞|14|37.593288|127.036666
ST-565|1322. 래미안라센트아파트 103동 앞|10|37.598068|127.039276
ST-567|1323. 월곡역 입구 육교 밑|10|37.600433|127.040206
ST-571|1325. 상월곡역 4번출구|10|37.605808|127.047737
ST-572|1326. 상월곡역 1번출구|10|37.606067|127.047317
ST-910|1328. 월곡역 3번출구|10|37.602626|127.041633
ST-578|1332. 석계역 5번출구 건너편|10|37.613555|127.066093
ST-579|1333. 석관초등학교 앞|20|37.610523|127.059799
ST-580|1334. 석관동주민센터 앞|10|37.612998|127.061309
ST-1200|1336. 성북3교 위|30|37.591251|127.014007
ST-1201|1337. 돈암성당 옆|13|37.590381|127.017135
ST-1202|1338. 용문2교 옆|15|37.586898|127.020751
ST-1203|1339. 삼성전자서비스 성북센터|9|37.610569|127.033508
ST-1204|1340. 광운초등학교 앞|11|37.617843|127.055000
ST-1206|1342. 성북쉼터 앞|10|37.592617|126.997932
ST-1207|1343. 한성대7번출구 앞|8|37.589248|127.007377
ST-1208|1344. 아리랑시네센터 앞|10|37.600288|127.013702
ST-1210|1346. 길음8골어린이공원 옆|15|37.608978|127.020248
ST-1211|1347. 길음래미안아파트817동 상가 앞|10|37.607105|127.021499
ST-1212|1348. 성북제일새마을금고 본점 앞|12|37.604751|127.022758
ST-1213|1349. 월계2교 버스정류장 앞|10|37.623828|127.050201
ST-1215|1351. 안암2교 옆|8|37.579448|127.024192
ST-1216|1352. e 편한세상 보문아파트 내|8|37.583881|127.017097
ST-1217|1353. 금호어울림센터힐 내|8|37.600830|127.023551
ST-1317|1354. 고려대학교 2번출구|22|37.590713|127.036193
ST-1347|1355. 보문2교|25|37.588699|127.018913
ST-1383|1357. 북한산보국문역|10|37.612071|127.008132
ST-1384|1358. 정릉도서관 앞|7|37.604789|127.010581
ST-1386|1360. 정릉역|10|37.603096|127.013504
ST-1424|1361. 홍익중고 입구|20|37.592967|127.002235
ST-1454|1362. 보문역6번출구 앞|12|37.585197|127.019668
ST-1455|1363. 보문4교 인근|25|37.583751|127.021949
ST-1456|1364. 성북동 치안센터 앞|10|37.590171|127.004089
ST-1457|1365. 선잠단지 앞|10|37.593360|126.999092
ST-1458|1366. 일신초등학교 옆|10|37.599720|127.040382
ST-1459|1367. 길음문화복합미디어센터|10|37.604297|127.022613
ST-1460|1368. 성신여대입구 교차로|10|37.591396|127.020156
ST-1634|1370. 복자사랑 피정의 집|10|37.594539|126.995208
ST-1636|1372. KEB은행 고대점|20|37.586444|127.031600
ST-1637|1373. 성북구보건소 건너편|8|37.602355|127.039077
ST-1723|1375. 생명의 전화 종합복지관 앞 교차로|20|37.603908|127.037376
ST-1745|1376. 한국과학기술연구원 중문|7|37.597309|127.043785
ST-1746|1377. 한국과학기술연구원 북문|10|37.604187|127.045494
ST-2223|1381.석계역 4번출구 뒤|18|37.614784|127.067001
ST-2406|1382.래미안월곡아파트 입구|10|37.608665|127.036270
ST-2225|1384.성신여대입구역 5번출구|13|37.592826|127.016288
ST-2226|1385.성신여대입구역 3번출구 앞|10|37.592365|127.016288
ST-2227|1386.동선고가차도 초입|10|37.594158|127.018966
ST-2229|1388. 돈암초교입구 버스정류장(한성대입구역 방면)|10|37.590881|127.011703
ST-2231|1390.석관래미안아트리치|10|37.606460|127.061622
ST-2232|1391.성북청소년센터|10|37.616882|127.056068
ST-2233|1392.돈암삼성풍림아파트|10|37.597099|127.022628
ST-2234|1393.돈암육교 하단|10|37.598182|127.021179
ST-2235|1394.길음뉴타운 래미안9단지|10|37.602424|127.019981
ST-2236|1395.래미안장위포레카운티(102동)|20|37.618179|127.051834
ST-2237|1396.래미안장위퍼스트하이(513동)|30|37.618442|127.051452
ST-558|1401. 극동늘푸른아파트|15|37.614738|127.076362
ST-561|1402. 금란주차장 앞|10|37.600070|127.102333
ST-566|1403. 중화빌딩 앞 (동부시장)|15|37.594249|127.076576
ST-599|1404. 동일로 지하차도|10|37.595298|127.080032
ST-568|1405. 망우역 1번출구|10|37.599098|127.092948
ST-847|1407. 먹골역 1번출구 뒤|10|37.611511|127.077888
ST-570|1408. 먹골역 6번출구 앞|10|37.610721|127.077476
ST-573|1410. 면목 대원칸타빌아파트|10|37.577781|127.090187
ST-912|1411. 상봉시장앞 교차로 한성빌딩 앞|10|37.592540|127.086738
ST-849|1414. 사가정역 2번출구|10|37.580989|127.088241
ST-850|1416. 상봉역 3번출구|8|37.595218|127.085998
ST-583|1418. 새솔초등학교|10|37.617439|127.109016
ST-585|1420. 신내어울공원 앞|15|37.613945|127.097702
ST-586|1421. 신내역 4번출구|13|37.612461|127.103378
ST-587|1422. 신내우디안아파트 1단지|10|37.620098|127.106460
ST-588|1424. 양원역 2번출구|10|37.606311|127.107742
ST-589|1425. 신성미소지움아파트|10|37.587459|127.095970
ST-590|1426. 면목도시개발아파트 1동 앞|10|37.573589|127.086822
ST-852|1427. 용마산역 1번출구|10|37.574298|127.086914
ST-853|1428. 원묵고등학교|10|37.616024|127.085968
ST-854|1429. 장안중학교|15|37.599956|127.080001
ST-855|1430. 중랑구청|20|37.606151|127.092597
ST-856|1431. 중랑구청 사거리|10|37.606498|127.095451
ST-857|1433. 중화역 2번출구|10|37.602077|127.079582
ST-593|1435. 능산삼거리|10|37.608680|127.100791
ST-594|1436. 동원베네스트 건물 앞|15|37.608100|127.101181
ST-595|1437. 늘푸른공원 앞|15|37.583419|127.079925
ST-596|1438. 홈플러스 신내점 앞|15|37.616168|127.093482
ST-942|1440. 면목2동 사거리|10|37.586372|127.080070
ST-584|1441. 신내능말공원|10|37.616706|127.110260
ST-1093|1442. 중랑구청 중화동 별관 앞|8|37.598590|127.079818
ST-1095|1444. 면목4치안센터|10|37.574028|127.080543
ST-1096|1445. 용마지구대 A|10|37.579940|127.079399
ST-1097|1446. 중랑전화국 교차로|10|37.591300|127.080329
ST-1098|1447. 면목역 3번출구|15|37.588901|127.087280
ST-1099|1448. 코스트코 상봉점|15|37.597320|127.089797
ST-1332|1449. 상봉역 1번출구|15|37.596557|127.085838
ST-1333|1450. 화랑대역 7번출구|10|37.619636|127.085044
ST-1334|1451. 중랑세무서|10|37.592758|127.072669
ST-1335|1452. 겸재교 진입부|25|37.585655|127.075050
ST-1345|1453. 중랑캠핑숲|9|37.604602|127.109252
ST-1346|1454. 한국전력공사(동대문 중랑지사)|10|37.607349|127.078590
ST-1375|1455. 상봉역 2번 출구|10|37.596328|127.085899
ST-1380|1456. 상아빌딩(우림시장 교차로)|10|37.595111|127.100326
ST-1381|1457. 동원사거리|10|37.589759|127.093238
ST-1451|1458. 상봉터미널2|9|37.597339|127.093086
ST-1452|1459. 용마한신아파트사거리|10|37.580348|127.092651
ST-2282|1461.동양엔파트 앞|12|37.593853|127.075073
ST-2283|1462.동부시장 북문 앞|9|37.593868|127.076522
ST-2284|1463.중랑구민회관|10|37.574077|127.085006
ST-2285|1464.중화역 4번출구|15|37.603054|127.079002
ST-2287|1466.두산대림아파트 삼거리|10|37.618824|127.087570
ST-2288|1467.sk신내 주유소앞(용마산로)|10|37.613620|127.101150
ST-2289|1468.먹골역 7번 출구|6|37.611476|127.077392
ST-2290|1469.먹골역 4번출구|20|37.609821|127.078132
ST-2291|1470.중화동 우리은행 앞|20|37.605201|127.078582
ST-2292|1471.동양쇼핑 정류소 앞|10|37.615352|127.078491
ST-2293|1472.영성빌딩(PAT)|8|37.604084|127.079231
ST-2294|1473.중랑역 1번 출구(중화문화복지센터)|10|37.594890|127.074951
ST-2298|1477.면목삼익아파트 앞|10|37.575984|127.079605
ST-2299|1478.홈플러스 상봉점 앞|15|37.598327|127.092269
ST-2300|1479.면목 홈플러스 2 |10|37.581054|127.082092
ST-2301|1480. 용마지구대 B|15|37.581111|127.080101
ST-948|1501. 미아역 3번,4번 출구 사이|9|37.626079|127.026481
ST-643|1503. 강북구청사거리(수유역 8번출구)|14|37.639263|127.026725
ST-644|1504. 삼양시장오거리|10|37.624156|127.018623
ST-645|1506. 강북문화예술회관|15|37.640327|127.013359
ST-859|1509. 서울북부수도사업소|10|37.634376|127.035751
ST-860|1510. 번동주공5단지 관리사무소 앞|10|37.633716|127.035514
ST-861|1511. 번동 금호어울림아파트102동앞|9|37.631122|127.036033
ST-862|1512. 강북중학교 앞|20|37.644737|127.026565
ST-863|1513. 강북구청 뒷편|20|37.639671|127.025199
ST-646|1514. 강북구청 사거리 버스정류소 앞|10|37.638805|127.028358
ST-648|1515. 송천동 주민센터|10|37.618286|127.024047
ST-652|1516. 우이초등학교 후문 옆|10|37.638587|127.015907
ST-654|1518. 수유2동은행빌딩 앞|10|37.643085|127.016166
ST-651|1519. 장미원시장 건너편|10|37.645450|127.015617
ST-650|1520. 수유중앙시장|7|37.639862|127.022789
ST-647|1525. 미아동 복합청사|10|37.627140|127.026695
ST-1100|1526. 강북종합시장 앞|8|37.641738|127.024627
ST-1101|1527. 미아역 1번 출구 뒤|10|37.627334|127.026054
ST-1102|1528. 삼각산동 주민센터|10|37.615036|127.020698
ST-1103|1529. 미아동 한국전력공사|15|37.630180|127.024909
ST-1104|1530. 광산사거리|13|37.643550|127.022346
ST-1105|1531. 미아사거리 1번 출구|10|37.613956|127.030250
ST-1106|1532. 번3동 주민센터 교차로|10|37.626354|127.047447
ST-1107|1533. 번동 주공3, 4단지 교차로|10|37.629917|127.040916
ST-1109|1535. 효성인텔리안 앞|10|37.636291|127.023376
ST-1110|1536. 번동 두산위브 101동 옆|20|37.636260|127.032173
ST-1387|1537. 북한산 우이역|10|37.663665|127.012428
ST-1388|1538. 솔밭공원역|8|37.656158|127.013137
ST-1389|1539. 4.19민주묘지역|10|37.649673|127.013450
ST-1390|1540. 가오리역|8|37.641670|127.016883
ST-1391|1541. 삼양역|10|37.626529|127.018058
ST-1392|1542. 삼양사거리역|10|37.621551|127.020370
ST-1423|1543. 수유1동 주민센터|10|37.630187|127.017738
ST-1665|1546. 송천동우체국|10|37.615459|127.029701
ST-1724|1547. 꿈의숲 롯데캐슬|10|37.617752|127.035705
ST-2123|1550.삼각산아이원아파트(105동 옆)|10|37.615222|127.018508
ST-2124|1551.4.19탑 앞|8|37.646862|127.008811
ST-2125|1552. 강북구청사거리|8|37.639202|127.027236
ST-2126|1553.서울북부고용노동지청|15|37.635204|127.033966
ST-2127|1554.번동사거리|10|37.635391|127.034553
ST-2129|1557.신창교|10|37.632381|127.039306
ST-2130|1558.강북문화정보도서관|10|37.625526|127.037323
ST-2132|1560. 도봉세무서 앞|10|37.619808|127.028526
ST-2133|1564.4.19민주묘지역 1번출구|7|37.649597|127.013847
ST-2134|1565.수유사거리|15|37.635612|127.022995
ST-2136|1568.4.19민주묘지 입구사거리|10|37.647933|127.014572
ST-2137|1569.수유역2번출구|10|37.637969|127.025901
ST-2401|1571.북서울 꿈의 숲 입구|10|37.626731|127.038772
ST-2402|1572. 우이동 먹거리마을|10|37.664463|127.011840
ST-2403|1573.현대성우아파트 옆|10|37.616664|127.022109
ST-2405|1574.송중초등학교 옆|8|37.616699|127.030494
ST-600|1601. 석계역 문화광장 내 자전거 보관소|10|37.615180|127.064643
ST-913|1602. 광운대역 앞|13|37.622661|127.061897
ST-866|1605. 헬스케어|10|37.631622|127.061614
ST-602|1606. 태릉입구역 3번출구 |10|37.619171|127.074928
ST-735|1608. 공릉역 1번 출구 앞|10|37.626613|127.072753
ST-603|1610. 화랑대역 2번출구 앞|20|37.620368|127.083641
ST-604|1611. 과기대 입구(우)|20|37.629940|127.076553
ST-605|1616. 하계2동 공항버스정류장 옆|10|37.635108|127.068328
ST-736|1619. 중계동 하나프라자빌딩 앞(중1-1)|10|37.649021|127.076408
ST-867|1620. 중계동 노원구민체육센터 옆(중1-2)|10|37.648208|127.070220
ST-914|1625. 상계역 3번출구|20|37.659999|127.072967
ST-915|1627. 수락산역 4번출구|12|37.676940|127.055099
ST-868|1628. 노일초등학교 앞|5|37.673618|127.055252
ST-869|1630. 수연빌딩 앞|10|37.676250|127.055503
ST-608|1634. 당고개공원 대여소|15|37.668460|127.077148
ST-609|1635. 상계3,4동 주민센터 대여소|6|37.672710|127.083160
ST-610|1636. 상계주공2단지 버스정류장 옆|10|37.649211|127.061767
ST-611|1637. KT 전화국 버스정류장 옆|9|37.654701|127.063400
ST-612|1639. 희성오피앙|10|37.680313|127.055068
ST-971|1640. 한내근린공원 북측|9|37.623863|127.068489
ST-970|1641. 한내근린공원 남측|15|37.621555|127.069511
ST-964|1642. 서울여대 남문|7|37.625316|127.088134
ST-1111|1643. 태릉입구역 8번출구|10|37.617366|127.075210
ST-1114|1646. 삼육대 입구|10|37.638488|127.107902
ST-1118|1650. 중계근린공원내|25|37.639579|127.065101
ST-1119|1651. 상계동 우방유쉘아파트 앞|20|37.672374|127.055992
ST-1120|1652. 파르코 앞|10|37.680000|127.055580
ST-1121|1653. 노원역1번출구|10|37.656200|127.063621
ST-1122|1654. 당고개입구 오거리|15|37.663791|127.075447
ST-1123|1655. 공릉1단지아파트|15|37.631111|127.070159
ST-1125|1657. 노원구청 |20|37.654048|127.057327
ST-1127|1659. 중계동 을지중학교|10|37.650329|127.071601
ST-1128|1660. 서울시립과학관|8|37.642070|127.076622
ST-1278|1661. 당현천근린공원|10|37.649639|127.065605
ST-1279|1662. 노원역7번출구|20|37.654216|127.059211
ST-1280|1663. 동해문화예술관앞|25|37.619380|127.057853
ST-1282|1665. 양지근린공원앞|10|37.646995|127.076400
ST-1283|1666. 노원소방서인근|10|37.655780|127.071777
ST-1284|1667. 중계중학교|10|37.654499|127.074386
ST-1285|1668. 중계역 6번출구|10|37.645565|127.063346
ST-1286|1669. 중계역 3번출구|9|37.643527|127.065223
ST-1287|1670. 노원경찰서교차로|20|37.643409|127.071838
ST-1288|1671. 인덕대학교|15|37.629348|127.054824
ST-1289|1672. 상계동수락리버시티|15|37.688598|127.053405
ST-1291|1674. 서울북부고용센터앞|15|37.653549|127.058082
ST-1348|1675. 월계문화체육센터|9|37.626941|127.055130
ST-1349|1677. 육군사관학교  앞|15|37.623165|127.090499
ST-1394|1678. 성서대학교 밀알관|10|37.648437|127.064445
ST-1395|1679. 삼육대 도서관|10|37.642829|127.106666
ST-1396|1680. 삼육대 제3과학관|7|37.642654|127.108383
ST-1425|1681. 현대6차 아파트|12|37.645801|127.082260
ST-1426|1682. 중계종합사회복지관 교차로|13|37.657455|127.075546
ST-1473|1683. 노원문화예술회관|5|37.650459|127.080886
ST-1474|1684. 태릉입구역 5번출구|20|37.618320|127.075630
ST-1475|1685. 불암고등학교 앞 횡단보도|8|37.648189|127.080482
ST-1476|1686. 상계주공10단지 종합상가 앞|15|37.661140|127.058052
ST-1639|1688. 마들역 7번출구|9|37.665660|127.057296
ST-1640|1689. 마들역 3번출구|10|37.665248|127.057891
ST-1641|1690. 도봉운전면허시험장 버스정류장 옆|10|37.657730|127.059310
ST-1642|1691. 노원정보도서관|10|37.660709|127.065330
ST-1672|1692. 온곡초교 교차로|10|37.664188|127.066009
ST-1740|1693. 원자력 병원|10|37.628189|127.082107
ST-2062|1696.수락리버시티4단지|10|37.686450|127.052833
ST-2063|1697.상계주공2단지 219동|10|37.650249|127.057151
ST-613|1702. 녹천역 1번출구 앞|10|37.645820|127.050422
ST-657|1703. 도봉산광역환승센터앞 |10|37.689720|127.045196
ST-614|1705. 도봉구청 정문앞|8|37.669223|127.046516
ST-916|1706. 방학동우체국 건너편|10|37.665664|127.042671
ST-615|1707. 도봉구민회관|20|37.654460|127.038513
ST-658|1708. 도봉보건소사거리|7|37.656829|127.039848
ST-616|1709. 쌍문역4번출구 주변|17|37.650127|127.035346
ST-1129|1713. 쌍문동 이안아파트 앞|10|37.651653|127.028488
ST-1130|1714. 도봉문화정보도서관 삼거리|10|37.644630|127.044609
ST-1131|1715. 서울특별시교육청도봉도서관|20|37.653179|127.012786
ST-1132|1716. 창동역 1번출구 건너편|10|37.654201|127.050727
ST-1135|1719. 신도봉사거리 버스정류장|10|37.673282|127.043991
ST-1136|1720. 도봉구청 옆(중랑천변)|27|37.668670|127.047981
ST-1137|1721. 창동역 2번출구 |12|37.653015|127.046997
ST-1292|1722. 창동청소년수련관|15|37.657798|127.050048
ST-1293|1723. 방학동학마을도서관|10|37.662078|127.027717
ST-1295|1725. 창1동주민센터|10|37.647502|127.043312
ST-1296|1726. 삼익세라믹아파트교차로|8|37.658588|127.035209
ST-1297|1727. 서울도봉초등학교인근|15|37.678676|127.040763
ST-1434|1728. 서울북부지방법원|10|37.677719|127.046813
ST-1461|1729. 도봉한신아파트 버스정류장|8|37.684009|127.045791
ST-1462|1730. 도봉산역 교차로 앞|8|37.687591|127.045501
ST-1463|1731. 도봉고등학교 맞은편|10|37.687629|127.042213
ST-1464|1732. 방학역사거리|10|37.667598|127.042999
ST-1465|1733. 방학사거리 (봄마당 앞)|12|37.662979|127.041938
ST-1466|1734. 쌍문현대1차아파트 108동 앞|10|37.658149|127.032669
ST-1467|1735. 도봉역 1,2번 출구사이 건너편|13|37.679119|127.044982
ST-1468|1736. 버스정류장 앞|12|37.652240|127.037063
ST-1469|1737. 신창시장|10|37.639701|127.038833
ST-1470|1738. 창동주공17단지 상가앞|10|37.646308|127.052742
ST-1638|1741. 제일강산수산입구|20|37.645198|127.032981
ST-2088|1743.창동19단지아파트 관리사무소앞|10|37.650390|127.052192
ST-2089|1744.도봉소방서 옆|15|37.664802|127.043029
ST-2094|1749. ESA아파트 상가 앞|10|37.666271|127.045989
ST-2095|1750. 창포원 남쪽 입구|12|37.688266|127.048896
ST-2096|1751. 창원초등학교 교차로|15|37.652122|127.041702
ST-2097|1752. 창동 주공 4단지 입구 옆|6|37.645481|127.048576
ST-2099|1754. 창동시장입구 사거리|11|37.646896|127.033432
ST-2101|1756.서울북부광역등기국|10|37.651485|127.044319
ST-2102|1757.솔밭공원역 1번출구 앞|10|37.655685|127.013381
ST-2103|1758.솔밭공원역 1번출구 주변|10|37.657279|127.013755
ST-2104|1759.서울북부지방법원 앞|10|37.677219|127.048637
ST-2106|1761.방학중학교 앞|10|37.665622|127.031089
ST-2107|1762.북한산 한신휴플러스APT앞|25|37.655338|127.042419
ST-2110|1765.쌍문역 1번출구 주변|13|37.649669|127.035614
ST-2112|1767.방학초등학교 앞|10|37.662509|127.033279
ST-2113|1768.신동아타워 버스정류소|8|37.662082|127.028747
ST-2115|1770.도봉한신아파트 주변|15|37.684738|127.050041
ST-2116|1771.성원APT버스정류소|15|37.657966|127.030090
ST-2117|1772.시립도봉노인복지관 버스정류소|13|37.658050|127.035758
ST-2119|1774.정의여중고 버스정류소|8|37.651348|127.034729
ST-2120|1775.신원리베르텔 앞|15|37.651287|127.045547
ST-619|1804. 독산역 2번출구 자전거주차장|10|37.466529|126.888717
ST-620|1805. 서울디지털운동장 앞|10|37.482288|126.877769
ST-621|1806. 에이스하이엔드타워9차 앞|10|37.486213|126.878639
ST-622|1808. 에이스하이엔드타워8차 앞|20|37.473209|126.884941
ST-623|1809. LG전자 별관동(호서대 벤처타워 맞은편)|10|37.470779|126.885154
ST-624|1812. 갑을그레이트밸리 앞|10|37.479030|126.887298
ST-625|1814. 두산위브아파트 옆 상가건물 앞|8|37.474220|126.894126
ST-642|1819. 금천구청 앞 자전거거치대|10|37.456478|126.895927
ST-628|1820. 신한은행 시흥대로금융센터지점|10|37.443340|126.903358
ST-629|1821. 홈플러스 시흥점 맞은편 다비치안경 앞|10|37.451457|126.902114
ST-630|1822. 서울 시흥동우체국 앞|10|37.452991|126.900909
ST-631|1823. 상신정비공업 앞|10|37.458911|126.898590
ST-632|1824. 독산근린공원 입구|25|37.464550|126.883728
ST-633|1825. 한신아파트 앞 육교 아래|10|37.454700|126.891052
ST-634|1826. 한신코아 앞|10|37.456840|126.888343
ST-660|1827. 독산보도육교 앞 자전거 보관소|20|37.456726|126.893066
ST-635|1828. 한양수자인아파트 앞|10|37.475318|126.898887
ST-636|1829. 홈플러스 금천점 앞|10|37.469139|126.897201
ST-637|1830. 빅마켓 금천점 앞|19|37.470230|126.895072
ST-638|1831. 한국전력 구로금천지사 앞|10|37.472499|126.897956
ST-639|1833. 독산역 1번출구 A|10|37.466541|126.890281
ST-640|1834. 월드메르디앙 벤처센터 2차|10|37.479084|126.879043
ST-641|1835. STX V타워|10|37.477069|126.884429
ST-661|1836. 금천구립 독산도서관|7|37.467403|126.908142
ST-1140|1839. 수출의 다리 아래|20|37.477436|126.886154
ST-1141|1840. 솔브레인이엔지 뒤편|20|37.475551|126.888458
ST-1142|1841. 가산동 주민센터|12|37.476951|126.891868
ST-1143|1842. 한울중학교|12|37.462574|126.906860
ST-1144|1843. 독산고등학교|10|37.477096|126.911132
ST-1146|1845. 롯데캐슬골드파크1차 서문|15|37.460289|126.892189
ST-1147|1846. 롯데캐슬골드파크1차 동문|15|37.460170|126.896041
ST-1148|1847. 독산주공 14단지 버스정류소|10|37.460933|126.887168
ST-1149|1848. 벽산 디지털밸리 5차|9|37.476276|126.885391
ST-1276|1849. 대륭포스트타워5차|10|37.481353|126.886940
ST-1277|1850. 코오롱테크노밸리|10|37.480159|126.886367
ST-1403|1851. 가산디지털단지 9번출구 인근|10|37.481231|126.881484
ST-1534|1853. 서울디자인직업전문학교 앞|10|37.472480|126.895866
ST-1535|1854. 가산아네스트 오피스텔 앞|10|37.478179|126.897407
ST-1536|1855. 성지아파트 옆 도로변|10|37.451320|126.897621
ST-1537|1856. 모두의학교|10|37.478408|126.907371
ST-1538|1857. 주공14단지|10|37.460559|126.887092
ST-1648|1858. 500번,507번 버스 종점 앞|10|37.437271|126.902687
ST-1734|1859. 대륭테크노타운 18차|13|37.467998|126.886840
ST-1932|1861.IBK기업은행 석수역 지점 앞|10|37.436981|126.903297
ST-1933|1862.스타즈호텔독산 빌딩 앞|20|37.461345|126.897583
ST-1934|1863.위너스 스포츠클럽 골프연습장옆|9|37.460536|126.898605
ST-1935|1864.산호시티빌 옆|15|37.456520|126.899551
ST-1936|1865.금천구청앞(M빌딩)|10|37.456333|126.896453
ST-1937|1866.서울안천초등학교 옆|10|37.457778|126.889427
ST-1938|1867.대륭포스트타워6차 앞|30|37.480888|126.883804
ST-1939|1868.우리은행 시흥남자동화점 앞|10|37.447853|126.902885
ST-1940|1869.롯데캐슬골드파크3차 301동 앞|15|37.459018|126.896713
ST-1941|1870.독산3동주민센터 앞|8|37.475070|126.903358
ST-662|1901. 신도림동주민센터 앞|10|37.507331|126.879730
ST-663|1904. 도림천역 1번 출구 앞|10|37.514240|126.882873
ST-664|1906. 신도림역 1번 출구 앞|20|37.509719|126.890098
ST-665|1907. 구일우성(아) 육교 밑|12|37.489631|126.876258
ST-666|1908. 해원리바파크 육교 밑|12|37.495285|126.872161
ST-667|1910. 낙원교회 맞은편|5|37.497505|126.884376
ST-668|1911. 구로디지털단지역 앞|18|37.484939|126.901321
ST-669|1912. 한신휴아파트 앞|13|37.488800|126.890663
ST-918|1914. 대림역4번출구|10|37.494403|126.894447
ST-671|1916. 구로중학교앞|10|37.494140|126.889984
ST-673|1920. 서울미래초등학교 사거리|14|37.504379|126.888298
ST-674|1924. 삼부르네상스파크빌|10|37.478740|126.895095
ST-919|1925. 동양미래대학교 정문 옆|20|37.499889|126.867698
ST-675|1928. 고척스카이돔구장 광장|10|37.499469|126.868400
ST-676|1929. 고척근린공원 고척도서관 앞|10|37.503814|126.851959
ST-677|1930. 개봉지구대 개봉치안센터|7|37.497684|126.853729
ST-920|1931. 개봉역2번출구 A|10|37.494995|126.858253
ST-678|1933. 개봉푸르지오아파트 상가|16|37.501705|126.847282
ST-870|1936. 개봉역 1번 출구 자전거보관서쪽|10|37.494281|126.859214
ST-679|1937. 한진아파트 입구|15|37.486061|126.852012
ST-871|1941. 오류동역 2번출구|10|37.493671|126.843704
ST-872|1943. 온수역 북측|10|37.492790|126.824523
ST-873|1946. 구로역 광장|10|37.503116|126.880386
ST-874|1951. 천왕이펜하우스 4단지 후문|15|37.480705|126.838958
ST-875|1952. 천왕연지타운2단지 앞|20|37.482105|126.845726
ST-876|1953. 천왕역 4번출구 뒤|20|37.486385|126.839210
ST-936|1955. 디지털입구 교차로|10|37.482883|126.901039
ST-1218|1956. 동아1차APT105동 버스정류장(신도림중학교 방면)|15|37.510009|126.882049
ST-1219|1957. 구일고등학교 정문 |15|37.493400|126.874328
ST-1220|1958. 강서수도사업소민원센터|15|37.495780|126.890121
ST-1221|1959. 구로구의회 앞|10|37.496456|126.889587
ST-1222|1960. 구로거리공원 동측(신도림역 방면)|10|37.502849|126.889480
ST-1223|1961. 신도림테크노근린공원|15|37.508182|126.891334
ST-1224|1962. 가리봉동주민센터|15|37.481601|126.892799
ST-1226|1964. 원메디타운 앞|10|37.497890|126.864501
ST-1227|1965. 삼환로즈빌아파트 105동 옆|15|37.497241|126.859123
ST-1228|1966. 한마을아파트 정문상가|10|37.496498|126.863098
ST-1229|1967. 참새공원(백곡경노당)|10|37.505138|126.844337
ST-1230|1968. 동인오피스텔 건너편 소공원|7|37.498481|126.847503
ST-1231|1969. 궁동생태공원|10|37.501903|126.828964
ST-1233|1971. 오정초교 앞 보도육교|10|37.490722|126.826393
ST-1235|1973. 오리로와 서해안도로 교차로 앞|10|37.488597|126.836494
ST-1236|1974. 신도림2차e편한세상아파트 203동 앞|9|37.505180|126.882537
ST-1237|1975. 대림역 1번 출입구 밑|10|37.492565|126.894752
ST-1238|1976. 남구로역 5번 출입구 앞|10|37.485679|126.886703
ST-1239|1977. 천왕역 1번 출입구 앞|15|37.486209|126.838821
ST-1243|1981. 천왕지구삼거리 앞|10|37.479431|126.842697
ST-1273|1983. 구로동롯데아파트|10|37.502548|126.883880
ST-1274|1984. 구로구청|10|37.495265|126.888473
ST-1275|1985. 구로도서관|20|37.498516|126.891990
ST-1521|1986. 태평양물산|15|37.484859|126.895187
ST-1522|1987. 개봉아이파크아파트 앞|15|37.490341|126.860931
ST-1523|1988. 고척LIGA아파트 앞|20|37.506050|126.860786
ST-1526|1991. 오류동역 맞은편|13|37.496761|126.844963
ST-1527|1992. 구로구배드민턴실내체육관 앞|12|37.491798|126.832420
ST-1528|1993. 금강수목원아파트 앞|10|37.489379|126.834198
ST-1529|1994. 삼성전자 물류센터 앞|10|37.496997|126.871780
ST-1531|1996. 구일역 1번 출입구 앞|20|37.495399|126.871009
ST-1696|1998. 고척교 교차로|23|37.498569|126.871521
ST-1732|1999. 수궁동 성당 주변|10|37.495258|126.830657
ST-1733|2000. 신도림4차 e편한세상 아파트 1109동 앞|15|37.512329|126.886833
ST-683|2002. 노들역 1번출구|17|37.512844|126.952468
ST-877|2003. 사육신공원앞|10|37.513359|126.948059
ST-685|2007. 유한양행앞|20|37.512939|126.934242
ST-686|2008. 노량진근린공원 대방공원|10|37.509368|126.928070
ST-726|2009. 보라매역 8번출구|10|37.500076|126.921081
ST-727|2012. 대림사거리(동작상떼빌아파트)|10|37.488361|126.906227
ST-687|2013. 장승배기역 5번출구|30|37.505851|126.939361
ST-728|2015. 신대방삼거리역 6번출구쪽|20|37.499855|126.929565
ST-688|2016. 신대방삼거리역 3번출구쪽|10|37.499645|126.927093
ST-690|2020. 장승배기역2번출구뒷편쪽|10|37.504497|126.938987
ST-691|2024. 상도역 1번출구|10|37.502178|126.948204
ST-692|2025. 흑석역 1번출구|20|37.509380|126.963615
ST-932|2026. 흑석역 4번출구|10|37.508586|126.963493
ST-693|2027. 중앙대학교 정문 1|15|37.507041|126.959152
ST-923|2032. 이수역 11번출구쪽|10|37.485507|126.981620
ST-729|2033. 사당동 아르테스 웨딩앞|10|37.481491|126.981582
ST-924|2034. 사당역 7번출구쪽|20|37.476890|126.980575
ST-694|2036. 정금마을 마을버스정류장|12|37.494663|126.982444
ST-695|2037. 동작역 5번출구 동작주차공원|20|37.503189|126.977149
ST-696|2038. 동작역 7번출구|10|37.503181|126.976089
ST-697|2040. 비계 버스정류소|10|37.506359|126.969078
ST-731|2041. 사당중학교 버스정류소|7|37.486835|126.968048
ST-732|2048. 삼일초등학교 인근|10|37.489078|126.973564
ST-699|2050. 노량진역 5번출구|15|37.513248|126.939971
ST-700|2054. 삼익아파트|10|37.510547|126.944847
ST-733|2056. 동작구민 체육센터|10|37.494499|126.916526
ST-701|2057. 상도 아이파크 아파트|10|37.500881|126.941749
ST-1150|2058. 동작경찰서|14|37.513523|126.943527
ST-1151|2059. 보라매공원 정문|10|37.497077|126.917793
ST-1152|2060. 남성역3번출구 뒤|10|37.484630|126.971549
ST-1153|2061. 한강 현대아파트 건너편|8|37.505928|126.969230
ST-1154|2062. 사당새마을금고|10|37.486652|126.967842
ST-1355|2064. 흑석한강푸르지오 106동앞|10|37.505355|126.966178
ST-1356|2065. 서울시여성가족재단|10|37.511989|126.927085
ST-1542|2066. 양문교회 앞|10|37.489398|126.907112
ST-1543|2067. 보라매역․동작세무서 버스정류장(강남중학교방면)|10|37.497669|126.919868
ST-1544|2068. 총신대 앞(육교)|8|37.488159|126.966476
ST-1667|2069. 숭실대 입구역3번 출구 앞|7|37.496601|126.953681
ST-1545|2070. 노량진역 2번 출구 앞|18|37.513919|126.943069
ST-1742|2071. 대림아파트 후문 상가 옆|10|37.488868|126.971908
ST-2350|2077.노들역 3번출구|10|37.511936|126.954162
ST-2351|2078.흑석 아크로리버하임(103동)|13|37.510837|126.961631
ST-2352|2079.중앙대학교 중앙광장|25|37.506671|126.957778
ST-2353|2080. 대방지하보도(대방동경남아너스빌아파트)|15|37.512134|126.925437
ST-2355|2082.7호선 이수역7번출구|10|37.484607|126.981796
ST-2356|2083.흑석롯데캐슬에듀포레(107동)|10|37.504703|126.960731
ST-2357|2084.e편한세상 상도노빌리티 앞|15|37.504562|126.946784
ST-2359|2086.삼일수영장 앞|22|37.487121|126.974357
ST-2361|2088.상도중앙하이츠빌 입구|10|37.500247|126.949729
ST-2362|2089.사당역10번출구(금강빌딩)|10|37.479106|126.981506
ST-2363|2090.기아자동차 사당점 앞|15|37.483779|126.977920
ST-2364|2091. 이수역9번출구|15|37.484703|126.980590
ST-2365|2092.흑석한강푸르지오(110동)|10|37.503112|126.964714
ST-2366|2093.상도SH빌아파트 입구|8|37.503211|126.954597
ST-2367|2094.숭실대학교(중문) |20|37.495506|126.956375
ST-2368|2095.경문고등학교 앞|10|37.491500|126.982406
ST-2369|2096.서울특별시 동작관악교육지원청|8|37.502513|126.940650
ST-702|2102. 봉림교 교통섬|13|37.484085|126.926887
ST-703|2103. 신림동 우방아파트|10|37.489177|126.919273
ST-712|2104. 사당역 5번출구|13|37.476089|126.981330
ST-704|2105. 미성동 신림체육센터|12|37.480251|126.914604
ST-705|2106. 세이브마트|12|37.473728|126.918403
ST-714|2108. 은천치안센터|20|37.483341|126.943199
ST-882|2109. 은천로입구 가로공원|22|37.486202|126.935813
ST-950|2110. 조원동 미성아파트|9|37.483192|126.902030
ST-965|2111. 서울대입구역 1번출구|10|37.480869|126.953315
ST-715|2112. 서울대입구역 마에스트로|15|37.481338|126.950645
ST-883|2115. 관악구시설관리공단|20|37.479915|126.902839
ST-717|2116. 에이스에이존빌딩|9|37.481704|126.950828
ST-884|2119. 중앙동 동진빌딩|10|37.484256|126.954696
ST-719|2122. 낙성대로 입구|20|37.478057|126.960495
ST-707|2127. 난곡종점|10|37.464885|126.919479
ST-720|2128. 관악구청교차로|12|37.479164|126.952583
ST-721|2129. 낙성대 과학전시관|10|37.469055|126.958145
ST-722|2130. 영어마을 관악캠프|10|37.471988|126.958427
ST-723|2137. KT&G 관악지점|10|37.484901|126.936531
ST-951|2139. 서울신성초등학교|10|37.471164|126.937019
ST-724|2140. 신림1교 교차로|20|37.478427|126.931861
ST-885|2141. 미림여고입구 교차로|8|37.472293|126.933410
ST-886|2143. 서울산업정보학교|10|37.470695|126.942199
ST-709|2144. 난우길입구|15|37.477775|126.916755
ST-725|2145. 은천초등학교 육교|12|37.486358|126.942924
ST-887|2148. 낙성대역 3번출구 뒤|10|37.477027|126.963394
ST-952|2156. 신림푸르지오아파트|12|37.480720|126.909324
ST-1156|2159. 인헌초교|10|37.475090|126.959228
ST-1259|2164. 관악우체국|8|37.484767|126.932876
ST-1260|2165. JK장평타워|10|37.476482|126.965362
ST-1262|2167. 낙성대역 1번출구|12|37.476295|126.964958
ST-1264|2169. 봉천역 2번출구|7|37.482189|126.942131
ST-1265|2170. 조원동 강남힐병원|10|37.481529|126.912033
ST-1337|2171. 서울대입구역 5번출구|17|37.481548|126.952003
ST-1267|2172. 나들목공원|15|37.469406|126.944511
ST-1268|2173. 당곡사거리|10|37.489749|126.927467
ST-1269|2174. 삼성디지털프라자관악점|10|37.488563|126.928482
ST-1270|2175. 신림동걷고싶은문화의거리입구|10|37.487300|126.928703
ST-1357|2176. 보라매공원 보도육교|15|37.488990|126.916381
ST-1547|2178. 서울대학교 정문|20|37.467094|126.949325
ST-1548|2179. 양녕로 입구|7|37.482189|126.946159
ST-1678|2183. 동방1교|20|37.471828|126.933921
ST-1702|2184. 구암초등학교 버스정류장|10|37.489490|126.945922
ST-1757|2185. 대학동 고시촌|10|37.470466|126.938652
ST-2370|2186. 낙성대입구삼거리|15|37.478820|126.959609
ST-2371|2187. 현대시장사거리|15|37.486736|126.947517
ST-2373|2189. 봉천역 4번출구|15|37.482753|126.941406
ST-2374|2190.도원맨션|12|37.483688|126.939155
ST-2375|2191.대학동주민센터 |10|37.470687|126.936485
ST-2379|2195.은천교회|15|37.484645|126.934509
ST-2380|2196. 봉천역 3번출구|15|37.483310|126.939025
ST-2382|2198.사랑의병원|10|37.479465|126.956932
ST-2383|2199.신봉천주유소 A|8|37.478771|126.958694
ST-741|2201. 본마을 정류소 앞|14|37.453281|127.051483
ST-742|2202.청계산입구역 1번출구|20|37.448936|127.054374
ST-925|2203. 청계산입구역 2번출구|10|37.447658|127.055015
ST-743|2205. 내곡3단지 어린이공원 앞|15|37.453750|127.059379
ST-744|2206. 언남초등학교 앞|20|37.454357|127.062103
ST-926|2207. 내곡파출소 뒤 정자|9|37.454406|127.064926
ST-745|2210. 반포1동 주민센터 앞|10|37.505096|127.013107
ST-927|2211. 서초구립반포도서관 앞|10|37.502635|127.012313
ST-746|2212.서초현대4차아파트 201동 맞은편|14|37.500652|127.018615
ST-747|2213. 고속터미널역 5번출구 앞|20|37.502231|127.002258
ST-748|2214. 신반포역 2번출구 앞|15|37.504116|126.997489
ST-928|2215. 반포종합운동장 입구|10|37.501712|126.995475
ST-750|2219. 고속터미널역 8-1번, 8-2번 출구 사이|20|37.506198|127.003944
ST-752|2221. 방일초교 마을버스 정류장|15|37.485610|126.994682
ST-753|2222.사당역 12번출구 뒤|10|37.478069|126.982032
ST-754|2223. 방배래미안 정문 앞|15|37.472610|126.983009
ST-755|2225.백석예술대학교 제3캠퍼스 앞|10|37.473758|126.995246
ST-756|2226. 신동아럭스빌아파트 앞|10|37.475181|127.001388
ST-757|2227.방배열린문화센터 앞|15|37.489051|126.992523
ST-758|2228.뒷벌공원 옆|15|37.489768|126.986763
ST-759|2229.로고스교회 맞은 편|10|37.487010|126.984962
ST-760|2230.이수역 4번 출구|20|37.485828|126.982627
ST-761|2231. 삼성타운(삼성생명) A동 맞은편|17|37.496913|127.024963
ST-762|2233. 서초신동아1차아파트 옆|13|37.491111|127.022956
ST-763|2235.KT 서초지사 앞|10|37.482158|127.002700
ST-764|2237.서울남부터미널 대합실 입구|20|37.484558|127.014869
ST-765|2239.교대역 6번출구|10|37.494216|127.013786
ST-766|2241.양재전화국 사거리|6|37.485378|127.041702
ST-767|2242.양재역 11번 출구 앞|20|37.483989|127.034179
ST-768|2243.서울가정법원|15|37.481491|127.036727
ST-769|2244.교육개발원입구 교차로|20|37.477851|127.038909
ST-770|2245.양재초등학교 맞은편|20|37.473613|127.030509
ST-889|2246. 서울시 품질시험소 앞|10|37.469200|127.029006
ST-771|2247.섬들근린공원|30|37.462638|127.026618
ST-929|2248. 서초리슈빌S 글로벌 앞|10|37.459953|127.024742
ST-880|2249. 우솔초등학교 맞은편|10|37.456233|127.019348
ST-881|2250. 서초유치원 맞은편|10|37.455799|127.016288
ST-781|2251. 더케이호텔 입구(양재2) |10|37.467506|127.034477
ST-890|2252. 잔디마을 마을버스 정류장|25|37.463321|127.036041
ST-772|2255. 양재시민의숲역 1번출구|25|37.470165|127.038620
ST-773|2256.양재동 꽃시장 입구|10|37.467689|127.040359
ST-774|2257. 청계산 입구 삼거리|10|37.462688|127.046112
ST-775|2258.구룡사 삼거리|20|37.471538|127.050590
ST-780|2259. 잠원역 3번-4번 출구사이|15|37.512989|127.011177
ST-879|2263. 바우뫼문화복지회관|20|37.471927|127.026840
ST-935|2264. 이수역 1번출구|9|37.488971|126.982719
ST-949|2265. 이수고가차도 남단|10|37.494743|126.983062
ST-1158|2266. 서초역 3번출구|15|37.490539|127.008163
ST-1160|2268. 서초4동주민센터 |10|37.502319|127.022270
ST-1161|2269. 주홍교 하부|15|37.510349|127.016052
ST-1162|2270. 서초포레스타 7단지|10|37.448966|127.057739
ST-1163|2271. 내방역 8번출구 앞|8|37.488021|126.994117
ST-1165|2273. 일동제약 사거리|10|37.477828|127.038269
ST-1166|2274. 양재시민의숲역 3번출구|10|37.469242|127.039825
ST-1167|2275. 염곡치안센터 건너편|7|37.461494|127.049072
ST-1169|2277. 길마중4교 하부|10|37.514839|127.015602
ST-1305|2279. 교대역 5번출구뒤|10|37.493618|127.014183
ST-1306|2280. 서울서초고용센터앞|10|37.484161|127.010971
ST-1307|2281. 연세사랑병원신관앞|7|37.475978|126.986282
ST-1309|2283. 그룹한빌딩옆|10|37.486526|126.989166
ST-1310|2284. CJ오쇼핑앞|15|37.468101|126.986801
ST-1311|2285. LH서초3단지 301동 맞은편|10|37.457424|127.022651
ST-1312|2286. 탑성마을입구|7|37.458549|127.055885
ST-1313|2287. 능안마을입구|10|37.455619|127.067100
ST-1314|2288. 안골마을입구|7|37.455608|127.064453
ST-1315|2289. 남태령역 2번출구|10|37.464298|126.988525
ST-1360|2293. SPC 앞|10|37.484798|127.036994
ST-1361|2294. 두상빌딩 앞|15|37.475906|127.046241
ST-1404|2297. 남부터미널역 1번출구|10|37.485672|127.015922
ST-1406|2299. 한전아트센터 앞|12|37.486469|127.028060
ST-777|2301. 현대고등학교 건너편|10|37.524070|127.021789
ST-787|2302. 교보타워 버스정류장(신논현역 3번출구 후면)|10|37.505580|127.024276
ST-788|2303. 논현역 10번출구|15|37.511371|127.021461
ST-789|2304. 대현그린타워|10|37.511627|127.035652
ST-790|2305. MCM 본사 직영점 앞|6|37.520641|127.034507
ST-791|2306. 압구정역 2번 출구 옆|26|37.527122|127.028717
ST-792|2307. 압구정 한양 3차 아파트|10|37.528381|127.039016
ST-793|2308. 압구정파출소 앞|14|37.529300|127.035598
ST-783|2309. 청담역(우리들병원 앞)|10|37.518901|127.049385
ST-794|2310. 청담동 맥도날드 옆(위치)|10|37.523612|127.040176
ST-786|2311. 학동로 래미안 아파트 앞|6|37.517772|127.043022
ST-795|2312. 청담역 13번 출구 앞|10|37.520580|127.056327
ST-796|2313. 금원빌딩 앞|10|37.525115|127.052467
ST-798|2314. 청담나들목입구|10|37.521015|127.060150
ST-799|2315. 봉은사역 5번출구 옆|10|37.514247|127.061119
ST-784|2317. 삼성도로공원|10|37.515888|127.066200
ST-801|2318. 삼성중앙역4번출구(문화센터더 리빌)|16|37.513576|127.055030
ST-802|2319. 포스코사거리 서측(수협 삼성동 지점)|10|37.506607|127.054679
ST-803|2320. 도곡역 대치지구대 방향|10|37.491928|127.056968
ST-804|2321. 학여울역 사거리|10|37.496116|127.069442
ST-806|2323. 주식회사 오뚜기 정문 앞|10|37.502212|127.067207
ST-807|2324. 천주교 대치 2동 교회 옆|10|37.500438|127.066223
ST-808|2325. 대치삼성아파트 앞 교차로|10|37.498649|127.059318
ST-809|2326. 대치동 삼성로|10|37.502395|127.058799
ST-810|2327. 뱅뱅사거리 랜드마크타워 앞|15|37.490550|127.031463
ST-811|2328. 르네상스 호텔 사거리 역삼지하보도 7번출구 앞|10|37.503211|127.042732
ST-812|2329. 르네상스호텔사거리 역삼지하보도 2번출구|10|37.502357|127.043190
ST-813|2330. 역삼월드메르디앙아파트 앞|10|37.492198|127.039459
ST-814|2331. 동영문화센터앞|10|37.498050|127.044601
ST-815|2332. 선릉역3번출구|8|37.504009|127.049079
ST-816|2333. 양재역 3번출구 주변|15|37.485157|127.034072
ST-817|2334. 삼호아파트 2동 ( 간선도로)|12|37.493759|127.045898
ST-818|2335. 3호선 매봉역 3번출구앞|15|37.486766|127.046760
ST-819|2336. 강남세브란스교차로  래미안그레이튼 104동 앞|10|37.494235|127.047462
ST-782|2337. 대모산입구역 2번출구 앞|10|37.492076|127.071975
ST-820|2339. 현대아파트 정문 앞|10|37.483261|127.052299
ST-821|2340. 삼호물산버스정류장(23370) 옆|17|37.477508|127.045173
ST-822|2341. 일원역 4~5번 출구 사이|10|37.483310|127.084938
ST-823|2342. 대청역 1번출구  뒤|15|37.494007|127.079513
ST-778|2343. 세곡사거리 대왕파출소 앞|10|37.465316|127.107727
ST-779|2344. 리엔파크 2단지 앞|10|37.465061|127.101196
ST-961|2347. 두산건설 본사|11|37.518638|127.035400
ST-797|2348. 포스코사거리(기업은행)|23|37.507232|127.056854
ST-959|2349. 역삼빌딩 앞(하나은행 옆)|12|37.501544|127.038566
ST-960|2350. 래미안그레이튼102동앞|9|37.494823|127.047904
ST-937|2351. 청소년수련관(수영장)앞|11|37.483879|127.089027
ST-962|2352. 서울본부세관(건설회관 앞)|6|37.517589|127.035026
ST-963|2353. 강남구청역 2번출구 뒤|10|37.516811|127.040473
ST-953|2354. 청담역 2번출구|5|37.519786|127.056762
ST-954|2356. 강남구청|10|37.518070|127.047119
ST-966|2357. 르네상스호텔사거리 역삼지하보도 3번출구 앞 (더 오번 빌딩 명동칼국수 앞)|10|37.501663|127.042976
ST-957|2358. 구룡초사거리 (현대아파트10동 앞 )|7|37.481384|127.053916
ST-958|2359. 국립국악중,고교 정문 맞은편|10|37.475605|127.050376
ST-956|2360. 도곡1동 주민센터 교차로|9|37.492809|127.041389
ST-1171|2362. 신사동 가로수길 입구|10|37.517635|127.022453
ST-1172|2363. 강남 을지병원 교차로|15|37.519138|127.027519
ST-1173|2364. 도산공원교차로|10|37.521240|127.031898
ST-1174|2365. K+ 타워 앞|15|37.523300|127.038475
ST-1177|2368. 도곡동 경남아파트 건너편|7|37.489341|127.041297
ST-1178|2369. KT선릉타워|20|37.505428|127.052871
ST-1179|2370. 한티역 3번출구|10|37.496551|127.054298
ST-1180|2371. 한국우편사업진흥원|6|37.514747|127.035133
ST-1181|2372. 대치역 사거리|10|37.494499|127.063797
ST-1182|2373. 개포동역 사거리|20|37.489276|127.065574
ST-1184|2375. 수서역 1번출구 앞|14|37.487350|127.100997
ST-1185|2376. 수서역 6번출구 앞|14|37.486778|127.100517
ST-1186|2377. 수서역 5번출구|9|37.487350|127.102325
ST-1245|2380. 삼성동베이직하우스앞|12|37.511695|127.049346
ST-1246|2381. 언주역 6번출구앞|8|37.506366|127.034523
ST-1247|2382. 역삼동 sk뷰 501동앞|6|37.501228|127.050361
ST-1248|2383. 보금자리정원|10|37.466327|127.094886
ST-1364|2384. 자곡사거리|15|37.476028|127.105941
ST-1365|2385. 학동역|10|37.513950|127.030151
ST-1366|2386. 크린랩 본사|10|37.509586|127.040908
ST-1407|2387. 래미안강남힐즈 사거리|10|37.472454|127.096076
ST-1433|2388. 강남구 도시관리공단|18|37.516784|127.051612
ST-1559|2389. 경기여자고등학교 후문 (삼성로3길 입구)|15|37.486160|127.067237
ST-1560|2390. 구룡마을 입구 (래미안블레스티지 아파트)|13|37.480880|127.063041
ST-1561|2391. 구룡터널 입구(개포1단지아파트)|7|37.475986|127.059623
ST-1562|2392. 구룡산 입구 (구룡산 서울둘레길 입구)|10|37.474472|127.055450
ST-1563|2393. 구룡사 앞 교차로 (보도육교)|7|37.472000|127.051338
ST-1564|2394. 개포래미안포레스트아파트 107동 앞|10|37.480251|127.054191
ST-1566|2396. 영동3교 북단(우성캐릭터 앞 보도)|15|37.485740|127.051048
ST-1568|2398. 더라움|10|37.508110|127.039451
ST-1571|2401. 밀알학교 입구 (삼성서울병원 입구)|10|37.486560|127.082672
ST-1573|2403. 공무원연금매점 교차로 (개포주공9단지 입구)|10|37.488719|127.074539
ST-1574|2404. 대모산입구역 4번 출구 앞|10|37.491809|127.073158
ST-1575|2405. 청담공원앞 교차로|14|37.518711|127.050849
ST-1576|2406. 논현동 광명빌딩 앞|10|37.517570|127.023643
ST-1577|2407. 역삼서초삼성 세무서 앞 (역삼빌딩 앞)|10|37.498470|127.030113
ST-1578|2408. 강남한양수자인아파트|14|37.477340|127.113273
ST-1679|2409. 역삼동 디오슈페리움 (우성아파트 사거리)|20|37.492061|127.030746
ST-1680|2410. 포스코피앤에스타워 (역삼역 3번출구 부근)|10|37.499599|127.033752
ST-1703|2411. 세곡동 성당|15|37.472969|127.112228
ST-1704|2412. 일원1동 주민센터|15|37.491703|127.088226
ST-1879|2413.도곡역 1번 출구|20|37.490959|127.054985
ST-1880|2414. 도곡역 아카데미스위트 앞|20|37.488971|127.051826
ST-1881|2415.한티역 롯데백화점 앞|15|37.496673|127.053428
ST-1882|2416.한티역 6번 출구|10|37.495899|127.052192
ST-1883|2417.선정릉 디캠프(D,CAMP)앞|10|37.507999|127.045249
ST-1884|2418.봉은사역 7번 출구 |10|37.513935|127.059822
ST-1885|2419.봉은사역 1,2번 출구 |13|37.514308|127.059700
ST-1886|2420.학여울역 사거리(LG베스트샵 앞)|20|37.496894|127.070137
ST-1887|2421. 신논현역 4번출구|15|37.504673|127.025794
ST-1888|2422.수서동 성당 맞은편|10|37.484169|127.094848
ST-1889|2423.영희초교 사거리(래미안개포루체하임)|10|37.490837|127.080650
ST-1891|2425.세곡동 사거리(대왕초등학교 정류장)|20|37.464618|127.106849
ST-1892|2426.강남한신휴플러스 6단지|10|37.468296|127.104698
ST-1893|2427.개포고등학교 정문앞|10|37.484851|127.058372
ST-1895|2429.압구정로데오역 6번출구|10|37.527454|127.040428
ST-1896|2430.강남파이낸스센터앞(역삼역2번출구)|10|37.500244|127.036056
ST-1897|2431.대치역 7번출구|10|37.494117|127.062904
ST-1552|2501. 서초 포레스타5단지|10|37.450660|127.057060
ST-1553|2502. 서초역1번출구 앞|9|37.491950|127.008552
ST-1554|2503. 반포1동 서초빌딩 앞|10|37.503810|127.021362
ST-1555|2504. 신사역 4번출구 뒤|10|37.515880|127.019302
ST-1556|2505. 우성아파트사거리 (기업은행앞)|12|37.493259|127.029533
ST-1557|2506. LG유플러스 (방배사옥)|10|37.479091|126.990676
ST-1654|2508. 양재이스타빌 앞|10|37.482978|127.042259
ST-1655|2509. 심산기념문화센터|16|37.498363|126.991149
ST-1735|2510. JW타워|8|37.483039|127.021461
ST-1739|2511. 이수역 6번출구 앞|10|37.483661|126.982322
ST-1899|2514.사평역 2번출구|10|37.503643|127.016021
ST-1900|2515.서초초등학교 후문|15|37.498928|127.024726
ST-1901|2516.본마을 노인복지센터 앞|9|37.454418|127.052742
ST-1902|2517. 서초그랑자이 앞|20|37.487682|127.024787
ST-1903|2518. 서초동 현대아파트 앞|10|37.487316|127.024894
ST-1904|2519.서초2교(사임당로 방면)|10|37.491008|127.023521
ST-1905|2520.서초1교 (진흥아파트 방면)|20|37.495933|127.021774
ST-1906|2521.서초 크로바타워 앞|13|37.495563|127.019180
ST-1908|2523.뉴코아 킴스클럽 앞|10|37.510192|127.007255
ST-1909|2524.반포쇼핑타운 8동 앞|15|37.507350|127.008018
ST-1910|2525.반포쇼핑타운 2동 앞|20|37.505607|127.002159
ST-1914|2529.우리은행 방배동지점 앞|12|37.489917|126.992080
ST-1915|2530.삼호3차아파트 앞|15|37.497795|126.987068
ST-1916|2531.멤피스아파트 앞|20|37.494205|126.989356
ST-1917|2532.국립국악원 앞|13|37.478202|127.008781
ST-1918|2533.한가람미술관 앞|10|37.480876|127.014526
ST-1920|2535.신반포역 3번출구 뒤|10|37.503623|126.997322
ST-1921|2536.서초종합체육관 입구|10|37.458995|127.041320
ST-1922|2537.양재역 8번출구 앞|10|37.482570|127.036437
ST-1923|2538.사평리근린공원|25|37.520267|127.015251
ST-2404|2539.대한무역투자진흥공사 KOTRA 앞|20|37.465408|127.043777
ST-1924|2540.반포천 앞|10|37.499050|126.996253
ST-1925|2541.옛골 입구|10|37.430976|127.070335
ST-1926|2542.신논현타워 앞|10|37.505088|127.023910
ST-1929|2545.국립중앙도서관(국제회의장옆)|15|37.497211|127.004272
ST-2414|2547. 반포래미안 리오센트|7|37.518321|127.014808
ST-2415|2548.반포1동 자율방범초소 옆|18|37.508476|127.016761
ST-2416|2549.LH 서초 4단지 403동|10|37.459247|127.023902
ST-2417|2550.양재동 꽃시장 건너편|10|37.467384|127.041458
ST-1590|2601. 석촌호수 아뜰리에|16|37.506748|127.098831
ST-1592|2603. 송파 글마루 도서관|10|37.480953|127.130104
ST-1627|2604. 풍납토성 서성벽터A|10|37.531311|127.111282
ST-1656|2605. 복정역 1번 출구 앞|15|37.471298|127.127090
ST-1657|2606. 위례동주민센터 맞은편 근린공원|15|37.481739|127.143226
ST-1681|2608. 송파구청|10|37.515052|127.106269
ST-1682|2609. 보성중고등학교 후문 앞|10|37.520488|127.135200
ST-1684|2611. 송파지역자활센터 뒤|7|37.536418|127.116165
ST-1685|2612. 문정·가락 대여소 앞|7|37.488719|127.109825
ST-1705|2613. 잠실나들목|18|37.516780|127.090492
ST-1706|2614. 가락고등학교 앞|15|37.501861|127.117233
ST-1707|2615. 테라타워2|15|37.488349|127.120780
ST-1716|2616. 거여동 사거리|10|37.497047|127.140350
ST-1717|2617. 가락삼환아파트 앞|15|37.496181|127.138031
ST-1728|2618. 삼전역 1번출구|14|37.504711|127.087562
ST-1729|2619. 석촌고분역 4번출구|9|37.502338|127.096443
ST-1730|2620. 송파나루역 4번 출구옆|12|37.509979|127.112312
ST-1719|2621. 한성백제역 2번 출구|15|37.516658|127.116256
ST-1720|2622. 올림픽공원역 3번출구|20|37.516258|127.130592
ST-1851|2623.석촌동 주민센터|15|37.503623|127.103553
ST-1852|2625.가락종합 사회복지관|15|37.495536|127.107200
ST-1853|2626.경찰병원역 1,2번 출구 사이|15|37.495693|127.123855
ST-1854|2627.문정시영아파트 5동 앞 공원|15|37.491123|127.135108
ST-1855|2628.문정역 1번출구|15|37.486698|127.122444
ST-1857|2630.서울방이동 고분군|12|37.507865|127.116989
ST-1858|2631.배명고등학교|15|37.497413|127.096305
ST-1859|2632.석촌고분역 2번 출구|9|37.502643|127.097396
ST-1860|2633.송파학사 옆|20|37.478179|127.147102
ST-1861|2634.위례포레샤인아파트 2318동|10|37.477211|127.137176
ST-1862|2635.잠실새내역 1번출구|21|37.511295|127.086738
ST-1864|2637. 아시아지하보도 14번 출구|15|37.511463|127.078811
ST-1866|2639.석촌역 8번출구|18|37.505504|127.106575
ST-1793|2641.송파역 4번출구|15|37.500049|127.111511
ST-1794|2642.마천동 성내천 쉼터|12|37.501495|127.147781
ST-1795|2643.풍납중학교 측면|10|37.525157|127.116943
ST-1796|2644. 성내5교|10|37.501667|127.137741
ST-1797|2645.잠실나들목2(엘스아파트136동)|10|37.516212|127.084342
ST-1867|2646.레이크펠리스101동앞|15|37.507759|127.091293
ST-1868|2647.잠실 자전거 수리센터 앞|7|37.511009|127.101142
ST-1869|2648.헬리오시티 112동 앞|30|37.494697|127.104644
ST-1870|2649.오금공원사거리2|10|37.505443|127.132331
ST-1871|2650.위례22단지 2208동 다리앞|7|37.478549|127.138137
ST-1872|2651.경찰병원역 3번출구 앞|20|37.496124|127.124801
ST-1873|2652.송파 레미니스1단지 102동 앞|41|37.508831|127.134262
ST-1874|2653.올림픽공원사거리(선수촌아파트)|25|37.512020|127.128646
ST-1875|2654.올림픽선수촌아파트 136동 앞|10|37.509975|127.133697
ST-1876|2655.송이공원|20|37.500579|127.118843
ST-1878|2656.풍납동 아이파크 107동 앞|10|37.524803|127.114639
ST-1877|2657.송파 파인타운 11단지 |10|37.479160|127.132194
ST-2409|2658.가락몰 업무동|10|37.495357|127.115692
ST-2410|2659.서울친환경유통센터|10|37.494167|127.104530
ST-1718|2701. 마곡나루역 5번출구 뒤편|26|37.565200|126.827316
ST-1727|2702. 마곡 엠밸리2단지|20|37.569179|126.819442
ST-2018|2703.서울도시가스 앞 |20|37.547485|126.872024
ST-2020|2704.홈플러스(강서점)|10|37.558521|126.854011
ST-2022|2706.강서공업고등학교 앞|13|37.576316|126.816497
ST-2023|2707.한강아파트|13|37.570369|126.844413
ST-2024|2708.강서한강자이타워 앞|15|37.564682|126.848907
ST-2025|2709.강변아파트 310동 앞|20|37.564586|126.856918
ST-2026|2710.라이품 공영주차장 앞|30|37.571319|126.841667
ST-2027|2711.가로공원공영주차장 1번 출구|9|37.537361|126.837448
ST-2028|2712.화곡터널입구교차로|18|37.538356|126.842361
ST-2029|2713.우장초등학교 앞|13|37.548534|126.846672
ST-2031|2715.마곡나루역 2번 출구 |25|37.566925|126.827438
ST-2032|2716.롯데 R&D 센터|20|37.570941|126.828315
ST-2033|2717.LG유플러스 마곡사옥|62|37.561336|126.833900
ST-2034|2718.마곡수명산파크1단지|20|37.555191|126.831466
ST-2035|2719.마곡문화공원|40|37.561210|126.830345
ST-2036|2720.힐스테이트에코|30|37.559658|126.829605
ST-2037|2721.등촌1-10단지 교차로|12|37.563205|126.839363
ST-2040|2723.마곡 필네이처|13|37.560894|126.836692
ST-2041|2724.(재)FITI시험연구원|25|37.568485|126.838569
ST-2042|2725.서울식물원 식물문화센터|20|37.568836|126.835632
ST-2044|2727.서울식물원 잔디마당 앞|25|37.563926|126.830642
ST-2045|2728.마곡나루역 3번 출구|55|37.565803|126.828079
ST-2046|2729.넥센 유니버시티 앞|30|37.569484|126.828094
ST-2047|2730.마곡메가박스 앞|30|37.559127|126.834953
ST-2048|2731.명덕고교|20|37.555240|126.834716
ST-2049|2732.마곡수명산 1-2단지 |14|37.555309|126.829856
ST-2050|2733.마곡13단지 정문 앞|15|37.558631|126.819915
ST-2052|2735.마곡 공공청사|20|37.562294|126.823951
ST-2054|2737.까치산역 3번 출구|10|37.531589|126.846641
ST-2056|2739.수명산파크1단지교차로|20|37.553630|126.828613
ST-2057|2740.마곡레포츠센터|20|37.572975|126.832443
ST-2058|2741.마곡수명산파크5-6단지|8|37.550617|126.826881
ST-2059|2742.강서구민올림픽체육센터|10|37.559906|126.850425
ST-2411|2744.강서세무서 앞|25|37.562091|126.820968
ST-2412|2745.수명초등학교|9|37.552558|126.823112
ST-2419|2746.수명산파크 4단지 411동 앞|10|37.551349|126.824935
ST-1753|2801. 대륭포스트타워1차|30|37.484371|126.895423
ST-1944|2804.항동지구 6단지 602동 앞|10|37.477375|126.820014
ST-1945|2805.구로자원순환센터 |10|37.482509|126.825759
ST-1946|2806.항동지구 4단지 입구|10|37.482597|126.826454
ST-1947|2807.항동지구 1단지 105동 앞|10|37.480628|126.821815
ST-1948|2808.항동지구 2단지 202동 앞|10|37.480808|126.821907
ST-1949|2809.항동지구 11단지 1103동 앞|10|37.477905|126.823112
ST-1950|2810.항동지구 3단지 311동 앞|10|37.477939|126.823272
ST-1952|2812.항동프라자|15|37.479831|126.822753
ST-1953|2813.항동지구 3단지 302동 앞|10|37.479370|126.825469
ST-1954|2814.항동지구 10단지 1001동 앞|10|37.479343|126.825637
ST-1955|2815.항동지구 7단지 정문|12|37.476036|126.816589
ST-1956|2816.항동지구 8단지 803동옆(주차장입구)|14|37.474731|126.817008
ST-1957|2817.천왕이펜하우스5단지 앞|10|37.479896|126.840370
ST-1958|2818.천왕이펜하우스3단지 앞|14|37.482238|126.838531
ST-1959|2819.하늘숲초등학교 앞|20|37.483665|126.841613
ST-1960|2820.신세기아파트 앞|10|37.493965|126.853042
ST-1961|2821.청구아파트 앞|10|37.501190|126.863533
ST-1962|2822.제니스스포츠 앞|14|37.504520|126.870552
ST-1963|2823.중앙유통단지 앞|10|37.499813|126.874313
ST-1964|2824.미래사랑어린이공원 앞|10|37.510063|126.889564
ST-1965|2825.초롱타운 앞|10|37.495452|126.880393
ST-1966|2826.가마산지하보도 옆|10|37.488647|126.880470
ST-2067|2901.공릉동풍림아파트 101동|8|37.629814|127.066505
ST-2068|2902.공릉풍림아파트 108동|12|37.628620|127.066909
ST-2069|2903.월계초안아파트 1단지|10|37.633728|127.044364
ST-2070|2904.중계3차청구아파트|8|37.650505|127.073982
ST-2073|2907. 월계중학교|15|37.630748|127.053108
ST-2074|2908. 광운대학교 중앙도서관|20|37.620002|127.058563
ST-2075|2909. 석계역 3번 출구|13|37.615459|127.067451
ST-2076|2910.도깨비시장|10|37.621864|127.074050
ST-2077|2911.상계역중앙시장|7|37.658870|127.071914
ST-2078|2912.대진고등학교|20|37.638156|127.073265
ST-2079|2913.상계8동 주민센터|17|37.667129|127.051765
ST-2080|2914.서울과학기술대학교(미래관)|10|37.629508|127.081039
ST-2081|2915.서울과학기술대학교(어학교육원)|35|37.634899|127.077674
ST-2083|2917.신창중학교 후문 맞은편 버스정류장|10|37.628070|127.046920
ST-2085|2919.등나무 근린공원(시립북서울미술관 앞) |16|37.640205|127.067619
ST-2086|2920.상계중학교(당현2교사거리)|14|37.651035|127.068710
ST-2087|2921.중계역 2번출구|10|37.645870|127.065620
ST-2160|3002.벽산상암스마트큐브 |10|37.565044|126.903602
ST-2161|3003.래미안신공덕3차아파트|5|37.545547|126.956794
ST-2163|3005.마포구청 청사내|10|37.566246|126.902183
ST-2164|3006. 상암월드컵파크5단지(상암중학교)|10|37.579299|126.887313
ST-2165|3007.MBC 앞|10|37.581981|126.890449
ST-2166|3008.DMC역7번출구|10|37.577114|126.898361
ST-2167|3009. 홍대입구역 사거리|10|37.555839|126.920433
ST-2168|3010.홍대입구역 3번출구|15|37.558296|126.925384
ST-2422|3013.서울지방고용노동청 앞|10|37.567604|126.987258
ST-1188|3100. 북성초교|8|37.557395|126.952163
ST-1189|3101. 서대문구청|15|37.578380|126.936096
ST-1190|3102. 연희삼거리|10|37.567996|126.931655
ST-1491|3103. 홍제삼거리 북측|8|37.586700|126.946769
ST-1492|3104. e편한세상 신촌4단지 앞|13|37.558128|126.956207
ST-1493|3105. 홍은센트레빌 아파트 앞|9|37.597148|126.938529
ST-2194|3109.북한산더샾 106동 앞|10|37.592933|126.941291
ST-2195|3110.홍은 현대아이파크 아파트 202동 앞|15|37.589282|126.936943
ST-2196|3111.무악재역 4번 출구|10|37.582210|126.950164
ST-2199|3113. 독립문 앞|15|37.572204|126.959747
ST-2198|3114.충정로역 3번 출구|7|37.560462|126.965522
ST-2200|3115.북아현 치안센터 인근|20|37.561454|126.955749
ST-2201|3116.신촌역 4번출구|10|37.555503|126.937202
ST-2202|3117.이화여대 인문관 인근|10|37.564067|126.945327
ST-2204|3119.연희 브라운스톤 아파트 앞|10|37.565196|126.929855
ST-2205|3120.DMC엘가아파트 앞|12|37.569835|126.918090
ST-2206|3121.가좌삼거리|15|37.570652|126.912986
ST-2207|3122.북가좌삼거리2|20|37.574283|126.906463
ST-2208|3123.DMC파크뷰자이1단지 110동 앞|30|37.572254|126.915100
ST-2210|3125.연희파크푸르지오아파트 앞|20|37.575641|126.927825
ST-2211|3126.남가좌동 제2공영주차장|10|37.583343|126.922744
ST-2212|3127.홍은2파출소 옆|10|37.583335|126.936286
ST-2213|3128.동신병원 맞은편|7|37.581317|126.935997
ST-2214|3129.DMC래미안e편한세상203동옆|20|37.576263|126.911323
ST-2215|3130.가재울사거리|20|37.574550|126.918266
ST-2216|3131.연가교 교차로|15|37.572158|126.921188
ST-2217|3132.홍제교|10|37.591861|126.944213
ST-2219|3134.SK리쳄블(서울아리수본부)|10|37.561317|126.966583
ST-1972|3201.당산skv1센터|9|37.530735|126.899169
ST-1973|3202.당산롯데캐슬프레스티지|15|37.528690|126.903862
ST-1974|3203.도림동배드민턴체육관|10|37.506114|126.898590
ST-1975|3204.도림고가도로 밑|10|37.511241|126.898185
ST-1976|3205.문래현대2차|10|37.520217|126.882164
ST-1977|3206.문래동 주민센터|15|37.517070|126.899086
ST-1978|3207.양남사거리1|12|37.521827|126.889724
ST-1982|3211.신길 래미안 프레비뉴|15|37.504383|126.908088
ST-1983|3212.신풍역 6번출구|10|37.500171|126.911308
ST-1985|3214.영등포 푸르지오 아파트 A|10|37.512023|126.901054
ST-1986|3215.강변삼성래미안|15|37.529743|126.907829
ST-1990|3219.영등포역 1번출구|10|37.514846|126.907730
ST-1991|3220.래미안에스티움 앞 (신풍로)|20|37.500137|126.913978
ST-1992|3221.서울특별시 남부교육지원청|10|37.519332|126.895301
ST-2390|3306.서울신우초등학교|10|37.462146|126.931777
ST-2393|3310.영락고등학교|15|37.476627|126.943641
ST-2394|3311.서울대입구역 4번 출구|12|37.481220|126.951576
ST-1798|3401.창신두산아파트|10|37.573760|127.013938
ST-1799|3402.이화공영주차장|10|37.576606|127.005569
ST-1801|3404.서울특별시 중부교육지원청|9|37.571853|127.002357
ST-1802|3405.파크팰리스|10|37.574550|126.970550
ST-1804|3407.안국동사거리(신)|18|37.575805|126.983390
ST-1805|3408.종로타워빌딩|13|37.570705|126.983238
ST-1807|3410.종로3가역 8번출구|10|37.572467|126.991889
ST-1808|3411.종묘|10|37.570720|126.994377
ST-1809|3412.세운상가|15|37.570312|126.994544
ST-1810|3413.종로플레이스|22|37.573200|126.997962
ST-1811|3414.종로5가역 4번출구|10|37.571174|127.002227
ST-1812|3415.동대문역6번출구|15|37.571460|127.010787
ST-1813|3416.동묘앞역 6번출구|15|37.571533|127.015617
ST-1814|3417.창신3동주민센터|12|37.577724|127.015251
ST-1815|3418.창신역2번 출구|10|37.579986|127.015060
ST-1816|3419.국립어린이과학관|14|37.581947|126.997367
ST-1817|3420. 성균관대입구 사거리 B|10|37.583274|126.998855
ST-1818|3421.혜화역 1번출구|10|37.583854|127.001853
ST-1819|3422.성균관대 정문|23|37.584796|126.997131
ST-1820|3423.현대그룹(본사)|20|37.575836|127.000694
ST-1822|3425.광화문 풍림스페이스본 1단지앞|7|37.575290|126.968955
ST-1823|3426.독립문역 2번출구 뒤|10|37.575016|126.957550
ST-1824|3427.인왕산 아이파크 정문|8|37.576667|126.955848
ST-1825|3428.서울미술관|10|37.595127|126.963493
ST-1826|3429.HW컨벤션센터 앞|10|37.597259|126.963088
ST-1827|3430.구기치안센터 앞|8|37.609500|126.956680
ST-1828|3431.로제우스 레포츠센터|10|37.607601|126.957687
ST-1829|3432.종로2가 사거리|15|37.570018|126.988807
ST-983|3500. 군자역2번출구|7|37.557586|127.079696
ST-984|3501. 광진구청 앞|10|37.539501|127.083000
ST-985|3502. 중곡역 1번출구|18|37.565658|127.084297
ST-986|3503. 광진유진스웰|14|37.550487|127.108955
ST-987|3504. 원일교회|8|37.538051|127.076599
ST-988|3505. 신양초교앞 교차로|12|37.535221|127.068397
ST-1191|3506. 영동대교 북단|10|37.537014|127.061096
ST-1192|3507. 어린이회관|25|37.545951|127.078002
ST-1193|3508. 화양사거리|7|37.548221|127.067878
ST-1194|3509. 세종사이버대학교|20|37.553417|127.073196
ST-1427|3510. 중곡SK아파트앞|10|37.568649|127.086250
ST-1195|3511. 응봉역 1번출구|10|37.551250|127.035102
ST-1197|3513. 상왕십리역 1번출구|15|37.564609|127.029197
ST-1198|3514. 왕십리교회옆|10|37.566261|127.023696
ST-1199|3515. 서울숲 관리사무소|20|37.542816|127.042083
ST-1271|3516. 구의아리수정수센터앞|15|37.543704|127.093246
ST-1266|3517. 용마사거리|10|37.562526|127.082275
ST-1263|3518. 군자역 7번출구뒤|8|37.556861|127.079139
ST-1378|3520. 광진경찰서|10|37.542518|127.084083
ST-1379|3521. 현대홈타운 뒷길|10|37.543426|127.096618
ST-1429|3523. 건국대학교 과학관(이과대) 앞|10|37.541717|127.080169
ST-1599|3525. 금호스포츠센터앞|15|37.546089|127.025070
ST-1601|3527. 왕십리 자이아파트(101동 앞)|5|37.561790|127.024391
ST-1602|3528. 광진정보도서관|8|37.550598|127.110511
ST-1603|3529. 어린이대공원정문|15|37.549789|127.075927
ST-1616|3530. 왕십리자이아파트 후문(삼거리)|10|37.560146|127.026359
ST-1617|3531. 논골사거리(금호도서관 입구)|10|37.554779|127.024841
ST-1618|3532. 왕십리KCC스위첸아파트|9|37.560680|127.026779
ST-1660|3533. 건대입구역 사거리(롯데백화점)|10|37.539138|127.070617
ST-1661|3534. 건대입구역 5번출구 뒤|12|37.540126|127.069496
ST-1663|3536. 중앙농협(자양동)|10|37.531810|127.080741
ST-1664|3537. 아차산 휴먼시아 아파트 옆|15|37.548488|127.093757
ST-1659|3538. 서울숲 IT캐슬|9|37.550891|127.044761
ST-1686|3539. 서원마을|10|37.563793|127.132835
ST-1722|3542. 래미안 구의파크 스위트|17|37.545005|127.090034
ST-1760|3543. 세종대학교(학술정보원)|15|37.551372|127.074440
ST-2326|3544.한양대역 3번 출구|10|37.554538|127.043777
ST-2327|3545.한양대역 1번출구|10|37.556579|127.043357
ST-2329|3547.상왕십리역 6번 출입구|12|37.564380|127.028869
ST-2330|3548.뚝섬역 6번출구|10|37.546958|127.047668
ST-2331|3549.건영아파트 앞|9|37.555141|127.071105
ST-2332|3550.금호나들목|20|37.544040|127.023200
ST-2333|3551.성동도로사업소|10|37.559799|127.056327
ST-2334|3552.서울숲 공영주차장앞|19|37.541957|127.042770
ST-2335|3553.마장역3번출구|10|37.565979|127.043113
ST-2337|3555.양지사거리(센트라스APT 115동앞)|10|37.566818|127.029151
ST-2338|3556.신금호파크자이APT앞|10|37.556106|127.019783
ST-2339|3557.서울숲리버뷰자이APT105동 앞|8|37.556530|127.039131
ST-2340|3558.마장동 금호어울림APT앞|10|37.563396|127.041870
ST-2341|3559.성동구민종합체육센터 앞|10|37.545909|127.044601
ST-2342|3560.성동구 견인차량 보관소 앞|22|37.563709|127.056449
ST-2343|3561.행당동 삼부APT후문|10|37.559268|127.038398
ST-2302|3563.구의7단지현대아파트|5|37.536800|127.090835
ST-2303|3564.나루마당|10|37.547073|127.098289
ST-2305|3566.우성4차아파트|10|37.535072|127.076110
ST-2308|3569.건대병원후문|12|37.539566|127.072441
ST-2309|3570.구의역 리버비스타 오피스텔|10|37.538097|127.089019
ST-2310|3571.화양 APT(횡단보도 옆)|15|37.544349|127.065406
ST-2312|3573.광나루안전체험관|15|37.551338|127.076713
ST-2314|3575. 자양사거리(서원빌딩)|6|37.536575|127.082580
ST-2318|3579.광진 캠퍼스시티|20|37.547889|127.067451
ST-2320|3581.광진광장|15|37.547470|127.073966
ST-2321|3582.화양동 우체국|14|37.547988|127.069503
ST-2325|3586.군자역 비채온 오피스텔|8|37.557712|127.077270
ST-2407|3587.우성식품 앞|15|37.542465|127.094230
ST-2408|3588.세종대학교(영실관)|10|37.552371|127.073539
ST-2420|3600.사근빗물펌프장 건너편|7|37.561191|127.049682
ST-2474|3602. 한국지역난방공사강남지사|5|37.492294|127.094337
ST-2671|3604. 삼성중앙역 5번출구|15|37.512962|127.053863
ST-2673|3606. 신사동주민센터 옆|10|37.524227|127.022850
ST-2674|3609. 언주초등학교 입구|16|37.485366|127.038497
ST-2675|3610. 윗반마을 입구|10|37.465347|127.108802
ST-2676|3611. 방죽마을 입구|16|37.471233|127.107215
ST-2677|3612. 은곡마을|10|37.467262|127.098014
ST-2678|3614. 은마아파트 입구 사거리|10|37.498401|127.060935
ST-2679|3615. 서울 논현동우체국 앞|10|37.514461|127.032600
ST-2680|3616. 역삼중학교 앞(체육관 방향)|10|37.495262|127.049507
ST-2681|3618. 서울율현초교 삼거리|10|37.473640|127.107025
ST-2682|3620. 청담역 11번 출구|10|37.519256|127.051597
ST-2683|3621. 휘문고교 사거리|10|37.502864|127.065940
ST-2684|3622. 은마아파트입구 사거리(1)|7|37.499866|127.060501
ST-2685|3623. 일원에코파크 앞(개포로 방면)|10|37.495876|127.086502
ST-2686|3624. 대모산입구역 7번 출구 앞|10|37.490177|127.073059
ST-2688|3627. 압구정나들목|10|37.530750|127.041603
ST-2690|3629. 청담사거리(신한오피스텔빌딩 앞)|4|37.524162|127.048950
ST-2691|3630. 개포우성6차아파트 정문 앞|10|37.476856|127.055366
ST-2788|3634. 국악고교 앞 교차로|5|37.474021|127.048446
ST-2837|3636. 삼성중앙역·플래티넘아파트 정류소|5|37.512641|127.051567
ST-2838|3637. 세곡데이케어센터|10|37.460723|127.102874
ST-2839|3638. 신청담나들목|5|37.527961|127.051628
ST-2847|3640. 일원1동주민센터앞 사거리|7|37.490966|127.088363
ST-2867|3641. 대청역|10|37.493705|127.079994
ST-2907|3642. LH강남힐스테이트아파트|13|37.470928|127.089706
ST-2868|3643. 더시그넘하우스 앞|5|37.472679|127.103759
ST-2869|3644. 상록수아파트|5|37.482761|127.080421
ST-2882|3646. 선정릉역 4번 출구|7|37.509784|127.042770
ST-2925|3647. 구룡역 1번 출구|10|37.486423|127.059318
ST-2926|3648. 구룡역 4번 출구|5|37.486705|127.060501
ST-2927|3649. 구룡역 5번 출구|6|37.486076|127.059219
ST-3049|3651. 개포동역 4번출구|5|37.489295|127.066169
ST-2424|3652. 한영외국어고등학교|10|37.547092|127.156219
ST-2567|3653. 강동리버스트4단지아파트 404동 앞|10|37.572013|127.171707
ST-2568|3654. 강동리버스트4단지아파트 405동 앞|10|37.572017|127.172950
ST-2457|3655. 둔촌신성미소지움아파트|10|37.527263|127.142333
ST-2747|3656. 둔촌푸르지오아파트|20|37.534072|127.145004
ST-2732|3657. 서울천호동우체국|12|37.540740|127.125762
ST-2733|3658. 프라이어팰리스아파트|10|37.554687|127.139404
ST-2734|3659. 명일초등학교 옆|10|37.554645|127.142532
ST-2736|3661. 명일동신동아아파트 앞|10|37.554832|127.151733
ST-2737|3663. 암사정수센터교차로(강동롯데캐슬퍼스트아파트)|10|37.558456|127.144157
ST-2738|3664. 맥도날드 서울둔촌DT점 앞|12|37.529388|127.137184
ST-2739|3665. 고덕센트럴 아이파크상가 앞|12|37.550582|127.165420
ST-2740|3668. 성내삼성아파트|10|37.531375|127.127075
ST-2742|3671. 둔촌동역교차로|10|37.529262|127.136497
ST-2743|3673. 강동리버스트6단지|10|37.570953|127.171745
ST-2744|3674. 강동리버스트7단지|10|37.570739|127.172157
ST-2745|3675. 강동리버스트8단지|20|37.571804|127.174468
ST-2696|3676. 강동리엔파크9단지|10|37.557365|127.180137
ST-2748|3680. 강동역3번출구|6|37.535415|127.133094
ST-2749|3681. 길동 마루빌딩|10|37.536853|127.139488
ST-2750|3682. 길동 동호빌딩|10|37.541545|127.141479
ST-2751|3683. KT&G강동지사|10|37.543708|127.142280
ST-2854|3684. 고덕자이(105동 앞)|10|37.553611|127.172035
ST-2697|3685. 강동리엔파크14단지(1401동 앞)|15|37.552124|127.180641
ST-2862|3686. 고덕 래미안 힐스테이트(101동)|8|37.558856|127.151489
ST-2841|3688. 상일동산(동아아파트앞 교차로)|10|37.545818|127.166885
ST-2908|3689. 강일역 3번출구|20|37.557403|127.176536
ST-2909|3690. 강일역 4번출구|23|37.557071|127.175140
ST-2929|3692. 둔촌오륜역 1번 출구|10|37.519603|127.138710
ST-2966|3694. 강동리엔파크 13단지(1303동 앞)|14|37.553028|127.180755
ST-3085|3698. 명일역 3번출구 옆|6|37.551425|127.144210
ST-3087|3699. 상일파출소 옆|15|37.556552|127.165878
ST-3098|3700. 강변그대가리버뷰 입구 맞은편|8|37.548164|127.122573
ST-3154|3701. 방아삼거리|8|37.523281|127.146133
ST-2458|3703. 삼양입구사거리|10|37.617088|127.028099
ST-2459|3707. 드래곤타워 앞|10|37.637134|127.031379
ST-2461|3714. 송천센트레빌|10|37.612209|127.024978
ST-2610|3718. 번동3단지 버스정류장|11|37.628685|127.043907
ST-3152|3720. 우이천 창번교|5|37.635360|127.037673
ST-3184|3724. 삼양동주민센터 앞|20|37.624912|127.019790
ST-3193|3725. 강북 청소년 문화정보도서관 앞|5|37.623020|127.021865
ST-3234|3726.삼양동사거리|6|37.617927|127.021362
ST-2476|3753. 공항중학교 버스정류장|10|37.561134|126.816101
ST-2611|3754. 신방화역 8번출구|10|37.567405|126.816215
ST-2477|3756. 마곡힐스테이트 정문|10|37.564975|126.817405
ST-2857|3757. 신방화역 6번출구|10|37.566928|126.816841
ST-2858|3758. 서울남부출입국관리소|10|37.560592|126.820846
ST-2569|3759. 이대서울병원|25|37.558631|126.835594
ST-2538|3760. 발산역 8번 출구|17|37.558460|126.836761
ST-2478|3761. 나이아가라관광호텔|10|37.549030|126.878364
ST-2831|3762. 마곡9단지 907동앞|10|37.560684|126.819183
ST-2479|3763. 등촌태영아파트|18|37.556030|126.864295
ST-2613|3764. 관문주유소(GS칼택스) 앞|10|37.558029|126.841835
ST-2480|3765. 문소빌딩|10|37.545555|126.844497
ST-2539|3766. 강서문화센터|10|37.544578|126.843780
ST-2481|3767. 대원빌딩|10|37.545368|126.844703
ST-2550|3769. 증미역 2번출구|10|37.557132|126.863143
ST-2752|3770. 남부순환로 205|10|37.547397|126.821411
ST-2482|3772. 길성그랑프리텔아파트|15|37.569248|126.816505
ST-2789|3774. 마곡9단지 910동 상가앞|10|37.561084|126.816795
ST-2483|3775. 가양오토갤러리|10|37.566440|126.844306
ST-2484|3776. 김포공항사거리|10|37.567535|126.805183
ST-2486|3778. 김포공항입구 교차로|10|37.561794|126.807929
ST-2488|3781. 강서아동복지센터|12|37.584583|126.810920
ST-2489|3782. 겸재정선미술관|10|37.571289|126.837776
ST-2490|3783. 마곡금호어울림아파트|10|37.574100|126.837112
ST-2491|3784. 벽산아파트|10|37.575317|126.836669
ST-2832|3785. 마곡14단지 1408동앞|20|37.557373|126.823326
ST-2558|3786. 강서힐스테이트 상가 앞|9|37.546638|126.836578
ST-2492|3787. 가양나들목|15|37.573863|126.843475
ST-2494|3789. 염창나들목|35|37.556804|126.871559
ST-2551|3792. 화곡본동시장 입구|10|37.543827|126.843688
ST-2552|3793. 더리브골드타워|10|37.565570|126.846244
ST-2553|3794. 안양천합수부(현대3차아파트)|20|37.551952|126.876708
ST-2555|3796. 송정역 3번출구 앞|8|37.560878|126.813545
ST-2556|3797. 마곡수명산파크7단지 710동 앞|10|37.548572|126.820762
ST-2557|3798. 그랜드아이파크아파트 앞|11|37.555107|126.851547
ST-2627|3799. 국립항공박물관|5|37.556884|126.809265
ST-2790|3801. 이랜드글로벌R&D센터|10|37.567192|126.834754
ST-2428|3802. 관악구민체육센터|8|37.472881|126.960037
ST-2614|3803. 남서울중학교|7|37.483131|126.921356
ST-2615|3804. 낙성대공원|10|37.471855|126.958717
ST-2616|3806. 낙성대 교수아파트|10|37.468959|126.957656
ST-2617|3807. 관악우체국 교차로|12|37.484973|126.934371
ST-2618|3810. 신봉천주유소 B|10|37.478881|126.958419
ST-2851|3811.신사로입구|10|37.486751|126.922721
ST-2842|3812. KT관악지점|10|37.481632|126.947189
ST-2872|3813. 낙성대역 5번출구|7|37.477527|126.962768
ST-2873|3814. 난곡사거리 |10|37.482048|126.915245
ST-2948|3815. 광일빌딩|7|37.476398|126.976837
ST-2995|3816. 관악 GSfresh|8|37.479091|126.949417
ST-2996|3818. 은천교회 앞|10|37.488571|126.921386
ST-3143|3819. 서울대벤처타운역|13|37.472202|126.933906
ST-3166|3820. 은천삼거리|8|37.485065|126.955459
ST-3199|3822.신림4,5동교|20|37.485317|126.924659
ST-2541|3853. 어린이대공원역 2번출구|18|37.547649|127.074707
ST-2542|3860. 건국대학교 정문 앞|10|37.546512|127.075714
ST-2543|3863. 동일로58길 입구|10|37.557754|127.072975
ST-2544|3864. 광진소방서 앞|11|37.545005|127.083374
ST-2545|3865. 이튼타워리버 2차|8|37.535209|127.069000
ST-2546|3868. 자양한강도서관|10|37.529163|127.077987
ST-2547|3873. 동서울우편집중국 앞|8|37.534709|127.084472
ST-2548|3878. 장로회신학대학교 주기철 기념관|15|37.549839|127.103027
ST-2843|3879. 중랑천 뚝방길 산책로 입구|7|37.566280|127.077476
ST-2830|3880. 홍련봉 공원|13|37.548969|127.093528
ST-2865|3881. 신자초교입구 교차로|7|37.532985|127.075790
ST-2891|3882. 자양2동 주민센터|3|37.528793|127.084632
ST-3012|3886.광진구 민방위교육센터|5|37.539192|127.098014
ST-3188|3890. 웰츠타워 오피스텔|7|37.538032|127.083557
ST-2462|3902. 항동지구5단지 501동 앞|16|37.478199|126.824874
ST-2463|3903. 현대아파트 앞|10|37.493339|126.859176
ST-2464|3904. 테크노마트 앞|10|37.506240|126.891143
ST-2465|3905. 희훈타워빌 앞|15|37.501914|126.889244
ST-2435|3906. 천왕차량사업소 입구|8|37.476047|126.845016
ST-2559|3907. 신도림7차e편한세상아파트 806동 앞|10|37.508625|126.883537
ST-2753|3908. 오류동 다숲오피스텔 앞|10|37.492671|126.841621
ST-2828|3910. 목양전원교회 앞 로터리|10|37.483890|126.822181
ST-2829|3911. 항동하버리안2단지아파트 후문|10|37.483375|126.822479
ST-2855|3912. 삼호아파트 앞|10|37.493858|126.856468
ST-2892|3914. 신도림쌍용플래티넘노블아파트 앞|10|37.501262|126.891181
ST-2949|3915. 동선아파트 앞|10|37.493827|126.839073
ST-3037|3917. 성공회대학교|10|37.488590|126.824783
ST-2997|3918. 이좋은집오피스텔 앞|10|37.494991|126.841850
ST-3013|3919. 구로역·NC신구로점 버스정류장(구로역 방면)|14|37.500965|126.882370
ST-3055|3920. 개봉역2번출구 B|10|37.495552|126.856979
ST-3067|3922. 서울남부교정시설 앞|16|37.477153|126.839859
ST-3088|3923. 구로공구상가 앞|10|37.500755|126.877082
ST-3103|3924. 오류동 계림웨스트밸리 앞|10|37.490909|126.829650
ST-3124|3925. 중앙유통단지 앞 B|10|37.501270|126.876785
ST-3182|3927. 구로월드아파트 앞|9|37.505195|126.876190
ST-3195|3928.고척아이파크아파트 106동 앞|10|37.498012|126.860984
ST-3194|3929. 고척아이파크아파트 205동 앞|15|37.501087|126.860458
ST-3189|3930. 온수역 2번 출구 앞|8|37.491794|126.825004
