station_id,station_name,raccnt,station_lat,station_lon,ADM_NM,gu
102, 망원역 1번출구 앞 ,15,37.555648,126.910629,서교동,마포구
103, 망원역 2번출구 앞 ,14,37.55495,126.910835,망원1동,마포구
104, 합정역 1번출구 앞 ,13,37.550739,126.915084,서교동,마포구
105, 합정역 5번출구 앞 ,5,37.550006,126.914825,서교동,마포구
106, 합정역 7번출구 앞 ,12,37.548645,126.912826,합정동,마포구
107, 신한은행 서교동지점 ,5,37.55751,126.918502,서교동,마포구
108, 서교동 사거리 ,12,37.552745,126.918617,서교동,마포구
111, 상수역 2번출구 앞 ,10,37.54787,126.92353,서강동,마포구
112, 극동방송국 앞 ,10,37.549201,126.923202,서강동,마포구
113, 홍대입구역 2번출구 앞 ,25,37.557437,126.92382,서교동,마포구
114, 홍대입구역 8번출구 앞 ,15,37.55706,126.924423,서교동,마포구
115, 마스타 빌딩 앞 ,15,37.558933,126.927116,신촌동,서대문구
117, 홍은사거리 ,23,37.591159,126.941329,홍은2동,서대문구
118, 광흥창역 2번출구 앞 ,9,37.547733,126.931762,서강동,마포구
119, 서강나루 공원 ,10,37.545207,126.931465,신수동,마포구
120, 신수동 사거리 ,5,37.545242,126.934112,신수동,마포구
121, 마포소방서 앞 ,15,37.549766,126.933174,신수동,마포구
122, 신성기사식당 앞 ,10,37.547458,126.938377,신수동,마포구
123, 문화촌 공원 ,20,37.594329,126.947387,홍제3동,서대문구
124, 서강대 정문 건너편 ,35,37.551139,126.936988,대흥동,마포구
126, 서강대 후문 옆 ,20,37.550411,126.943847,대흥동,마포구
127, 현대벤처빌 앞 ,9,37.55352,126.93695,대흥동,마포구
128, 신촌역(2호선) 1번출구 옆 ,20,37.555496,126.93634,신촌동,서대문구
129, 신촌역(2호선) 6번출구 옆 ,10,37.555053,126.937568,대흥동,마포구
130, 신촌역(2호선) 7번출구 앞 ,10,37.554859,126.936157,서교동,마포구
131, 증산2교 ,20,37.584171,126.911102,북가좌2동,서대문구
133, 해담는다리 ,15,37.582031,126.908996,북가좌2동,서대문구
134, 연세로 명물길 ,8,37.557891,126.938079,신촌동,서대문구
135, 명물길 원형무대 앞 ,10,37.559226,126.939842,신촌동,서대문구
137, 신촌기차역입구 교차로 ,10,37.556812,126.943183,신촌동,서대문구
138, 신촌동 제1공영주차장 앞 ,10,37.559177,126.934524,신촌동,서대문구
139, 연세대 정문 건너편 ,10,37.559864,126.934417,신촌동,서대문구
140, 이화여대 후문 ,22,37.560009,126.940734,신촌동,서대문구
141, 연대 대운동장 옆 ,10,37.562381,126.932647,신촌동,서대문구
142, 아현역 4번출구 앞 ,11,37.557201,126.955665,아현동,마포구
143, 공덕역 2번출구 ,9,37.544578,126.950218,아현동,마포구
144, 공덕역 8번출구 ,10,37.543579,126.951324,공덕동,마포구
145, 공덕역 5번출구 ,9,37.54425,126.951637,공덕동,마포구
146, 마포역 2번출구 뒤 ,12,37.539936,126.945823,용강동,마포구
147, 마포역 4번출구 뒤 ,7,37.539272,126.945915,도화동,마포구
148, 용강동 주민센터 앞 ,11,37.542346,126.943023,용강동,마포구
150, 서강대역 2번출구 앞 ,15,37.552955,126.934341,대흥동,마포구
153, 성산2교 사거리 ,10,37.564697,126.912612,성산1동,마포구
154, 마포구청역  ,13,37.560909,126.905494,망원2동,마포구
155, 가좌역1 번출구 앞 ,15,37.568294,126.915046,성산2동,마포구
156, 서울서부지방법원 앞 ,10,37.549331,126.954917,공덕동,마포구
157, 애오개역 4번출구 앞 ,12,37.553001,126.956687,공덕동,마포구
159, 이대역 4번 출구 ,5,37.556953,126.946342,신촌동,서대문구
160, 북아현동 가구거리 ,13,37.557548,126.959381,북아현동,서대문구
161, 무악재역1번 출구 ,8,37.582244,126.950645,홍제2동,서대문구
162, 봉원고가차도 밑 ,15,37.566261,126.94667,신촌동,서대문구
163, 명지전문대학교 정문 앞 ,6,37.583698,126.924964,홍은2동,서대문구
164, 북가좌1동 주민센터  ,10,37.574478,126.910049,북가좌1동,서대문구
165, 중앙근린공원 ,20,37.575138,126.91394,북가좌1동,서대문구
166, 가재울 초등학교 ,20,37.573818,126.919235,남가좌1동,서대문구
167, 연가초등학교 옆 ,15,37.57946,126.917129,북가좌2동,서대문구
169, 북가좌 삼거리 ,10,37.573001,126.907798,북가좌1동,서대문구
170, DMC파크뷰자이아파트 302동 앞 ,10,37.573112,126.922447,남가좌2동,서대문구
171, 임광빌딩 앞 ,10,37.564723,126.967277,충현동,서대문구
173, 서대문역 8번출구 앞 ,8,37.564777,126.966148,충현동,서대문구
175, 홍연2교옆 ,20,37.578067,126.930885,홍은2동,서대문구
176, 명지대학교 도서관 ,10,37.581096,126.924026,남가좌2동,서대문구
177, 북가좌 초등학교 ,8,37.577636,126.909652,북가좌1동,서대문구
178, 증산3교 앞 ,10,37.579875,126.906349,북가좌1동,서대문구
179, 가좌역 4번출구 앞 ,14,37.568775,126.915298,남가좌1동,서대문구
180, 충정로역 7번출구 아래 ,10,37.559967,126.962463,충현동,서대문구
181, 망원초록길 입구 ,15,37.551342,126.902671,망원1동,마포구
182, 망원2빗물펌프장 앞 ,9,37.551364,126.90306,합정동,마포구
183, 하늘채코오롱아파트 건너편 ,15,37.565387,126.919326,연남동,마포구
184, 7번가피자 서교망원점 ,8,37.558948,126.907752,성산1동,마포구
185, 마포 신수공원 앞 ,15,37.542545,126.934295,신수동,마포구
186, 월드컵공원 ,40,37.563964,126.898208,성산2동,마포구
188, 홍은동 정원여중 입구 ,9,37.586387,126.935127,홍은2동,서대문구
191, 서우빌딩 ,10,37.578891,126.910736,북가좌2동,서대문구
192, 연서어린이공원 ,10,37.572227,126.923065,연희동,서대문구
194, 증산교 앞 ,10,37.577316,126.902969,북가좌1동,서대문구
195, 모래내고가차도  ,10,37.567657,126.917808,연희동,서대문구
198, 충정2교 ,15,37.562137,126.963775,충현동,서대문구
199, 서울 월드컵 경기장 ,30,37.566844,126.896446,성산2동,마포구
200, 국회의원회관 ,18,37.528415,126.913917,여의동,영등포구
201, 진미파라곤 앞 ,15,37.531238,126.921333,여의동,영등포구
202, 국민일보 앞 ,30,37.528816,126.92453,여의동,영등포구
203, 국회의사당역 3번출구 옆 ,15,37.528057,126.918701,여의동,영등포구
204, 국회의사당역 5번출구 옆 ,13,37.528163,126.917022,여의동,영등포구
205, 산업은행 앞 ,20,37.526264,126.920509,여의동,영등포구
206, KBS 앞 ,35,37.524665,126.918022,여의동,영등포구
207, 여의나루역 1번출구 앞 ,46,37.527156,126.9319,여의동,영등포구
209, 유진투자증권빌딩 앞 ,12,37.524612,126.927833,여의동,영등포구
213, KT앞 ,19,37.521907,126.918952,여의동,영등포구
214, 금융감독원 앞 ,21,37.523021,126.920837,여의동,영등포구
215, 여의도고교 앞 ,10,37.524837,126.934906,여의동,영등포구
217, NH농협은행 앞 ,15,37.522079,126.930366,여의동,영등포구
219, 롯데캐슬엠파이어 옆 ,12,37.520694,126.925834,여의동,영등포구
220, 미성아파트 A동 앞 ,30,37.519363,126.926048,여의동,영등포구
221, 여의도초교 앞 ,10,37.522674,126.937789,여의동,영등포구
222, 시범아파트버스정류장 옆 ,12,37.51902,126.936889,여의동,영등포구
223, 진주아파트상가 앞 ,20,37.51913,126.933372,여의동,영등포구
224, 롯데캐슬 앞 ,20,37.520088,126.932365,여의동,영등포구
225, 앙카라공원 앞 ,26,37.517585,126.929618,여의동,영등포구
226, 샛강역 1번출구 앞 ,19,37.517765,126.928413,여의동,영등포구
227, 양평2나들목 보행통로 입구 ,20,37.544666,126.888359,양평2동,영등포구
228, 선유도역 3번출구 앞 ,10,37.538459,126.894508,양평2동,영등포구
229, 양평1 보행육교 앞 ,25,37.535873,126.892181,양평2동,영등포구
230, 영등포구청역 1번출구 ,13,37.524635,126.896217,당산1동,영등포구
231, 남부고용노동지청 남측 ,10,37.524505,126.891822,양평1동,영등포구
232, 양평우림 이비즈센타 앞 ,20,37.52565,126.887817,양평1동,영등포구
233, 양평1동 YP센터 앞 ,10,37.528488,126.891647,양평1동,영등포구
235, 신길동 우리은행 옆 ,10,37.504566,126.910232,신길3동,영등포구
236, 문래동자이아파트 앞 ,10,37.516155,126.894615,문래동,영등포구
237, 보라매 두산위브 건너편 ,20,37.496513,126.914802,신대방2동,동작구
238, 제2구민체육센타 앞 ,10,37.526386,126.902755,당산2동,영등포구
239, 유스호스텔 앞 ,20,37.525852,126.903282,영등포동,영등포구
240, 문래역 4번출구 앞 ,10,37.518737,126.895576,문래동,영등포구
241, 신길우성1차아파트 앞 공원 ,10,37.505016,126.898536,도림동,영등포구
242, 신길선원가와인아파트 앞 ,15,37.510932,126.910224,영등포본동,영등포구
243, 이앤씨드림타워 앞 ,15,37.527084,126.89138,양평1동,영등포구
244, 영등포삼환아파트 앞 ,20,37.530078,126.905708,영등포동,영등포구
245, 삼성생명 당산사옥 앞 ,14,37.528263,126.896629,당산2동,영등포구
247, 당산역 10번출구 앞 ,14,37.53342,126.902236,당산2동,영등포구
248, 초원아파트 앞 ,10,37.531055,126.924209,여의동,영등포구
249, 여의도중학교 옆 ,16,37.524349,126.936119,여의동,영등포구
250, 대림아파트 사거리 ,10,37.50764,126.92308,신길7동,영등포구
251, 서울지방병무청 버스정류장 ,10,37.504493,126.921951,신길7동,영등포구
252, 보라매역4번출구 ,10,37.499828,126.919944,신길6동,영등포구
254, 도림신협 앞 ,10,37.503803,126.903419,신길3동,영등포구
255, 도림사거리 ,15,37.506572,126.90113,신길3동,영등포구
256, 동아에코빌입구 ,10,37.509475,126.899299,도림동,영등포구
258, 신길역3번출구 ,14,37.517692,126.914299,영등포동,영등포구
259, 대방역6번출구 ,17,37.513591,126.925933,신길7동,영등포구
260, 여의도 마리나선착장 앞 ,15,37.533657,126.912162,여의동,영등포구
262, 영문초등학교 사거리 ,12,37.519927,126.889183,문래동,영등포구
263, 근로자회관 사거리 ,12,37.51715,126.888626,문래동,영등포구
264, 교보생명보험 앞 ,15,37.52193,126.891616,당산1동,영등포구
265, 영등포유통상가 사거리 ,11,37.521133,126.896537,당산1동,영등포구
266, 영등포청과시장 사거리 ,10,37.520294,126.901191,영등포동,영등포구
267, 삼성화재 사옥 옆 ,10,37.535961,126.8983,양평2동,영등포구
268, 그랜드컨벤션센터 앞 ,6,37.534717,126.900001,당산2동,영등포구
270, 증권거래소후문교차로 ,10,37.522342,126.927101,여의동,영등포구
271, 샛강생태공원방문자센터 앞 ,10,37.518962,126.921615,여의동,영등포구
272, 당산육갑문 ,20,37.535339,126.903678,당산2동,영등포구
275, 신동아아파트 ,10,37.522697,126.885681,양평1동,영등포구
276, 영등포로터리2 ,10,37.518283,126.912635,영등포동,영등포구
278, 쌍용플레티넘오피스텔 ,10,37.50793,126.895233,도림동,영등포구
279, 영등포 푸르지오 아파트 B ,15,37.513229,126.904464,영등포본동,영등포구
280, 양평동6차현대아파트 앞 ,10,37.5321,126.894439,양평2동,영등포구
281, 대림신동아아파트 앞 ,8,37.498241,126.893981,구로5동,구로구
282, 신한은행 대림동지점 ,10,37.487529,126.904876,대림2동,영등포구
283, 아크로타워 스퀘어(영등포시장) ,15,37.522518,126.907218,영등포동,영등포구
284, 센트럴 푸르지오 시티 앞 ,16,37.518211,126.902229,영등포동,영등포구
285, 콤텍시스템 앞 ,14,37.499858,126.897239,대림3동,영등포구
286, 우성아파트 교차로 ,12,37.494571,126.899749,대림2동,영등포구
287, 영등포전화국사거리 (서강어린이공원) ,10,37.525768,126.905738,영등포동,영등포구
288, 쌍용예가(구청별관) ,10,37.528099,126.893386,당산1동,영등포구
289, 대림3동사거리 ,10,37.499809,126.898002,대림3동,영등포구
290, 새말소공원 ,12,37.531509,126.897827,당산2동,영등포구
291, 문래동 하이테크 시티 ,14,37.514129,126.899391,문래동,영등포구
292, 영일 어린이공원 ,10,37.51012,126.904067,영등포본동,영등포구
293, 충북 미래관 ,15,37.52917,126.907577,당산2동,영등포구
295, 영등포공원 분수대 앞 ,10,37.514812,126.911705,영등포본동,영등포구
296, KT플라자 영등포점 ,20,37.526302,126.90538,영등포동,영등포구
297, 국회3문 ,10,37.528636,126.912673,여의동,영등포구
298, KBS 연구동 건너편 ,25,37.527507,126.914299,여의동,영등포구
299, 여의도 순복음교회 ,10,37.531791,126.922454,여의동,영등포구
300, 정동사거리 ,6,37.56805,126.96923,소공동,중구
301, 경복궁역 7번출구 앞 ,20,37.575794,126.97145,사직동,종로구
302, 경복궁역 4번출구 뒤 ,12,37.575946,126.97406,사직동,종로구
303, 광화문역 1번출구 앞 ,8,37.571769,126.974662,사직동,종로구
305, 종로구청 옆 ,16,37.572559,126.978332,종로1·2·3·4가동,종로구
307, 서울역사박물관 앞 ,11,37.569999,126.971099,사직동,종로구
308, 광화문 S타워 앞 ,31,37.569969,126.973937,사직동,종로구
309, 광화문역 6번출구 옆 B ,13,37.569961,126.976158,사직동,종로구
310, 청계광장 옆 ,8,37.568878,126.97747,명동,중구
314, 국립현대미술관 ,10,37.579708,126.980857,삼청동,종로구
316, 종각역 1번출구 앞 ,8,37.570396,126.981788,종로1·2·3·4가동,종로구
318, 광교사거리 남측 ,10,37.568634,126.982315,명동,중구
320, 을지로입구역 4번출구 앞 ,17,37.566223,126.983589,명동,중구
321, KEB 하나금융그룹 명동사옥 옆 ,15,37.565464,126.984138,명동,중구
322, 명동성당 앞 ,10,37.564476,126.986968,명동,중구
324, 신세계백화점 본점 앞 ,8,37.561344,126.980506,소공동,중구
326, 안국역 5번출구 앞 ,15,37.57624,126.98616,종로1·2·3·4가동,종로구
327, 낙원상가 옆 ,10,37.573356,126.987464,종로1·2·3·4가동,종로구
328, 탑골공원 앞 ,11,37.570396,126.988189,종로1·2·3·4가동,종로구
329, 청계2가 사거리 옆 ,8,37.568485,126.987884,종로1·2·3·4가동,종로구
331, 을지로2가 사거리 북측 ,10,37.566383,126.987205,명동,중구
332, 을지로2가 사거리 남측 ,5,37.56599,126.987792,명동,중구
334, 종로3가역 2번출구 뒤 ,10,37.570598,126.99179,종로1·2·3·4가동,종로구
335, 종로3가역 15번출구 앞 ,10,37.570194,126.991653,종로1·2·3·4가동,종로구
336, 충무로역 6번출구 앞 ,8,37.561447,126.99311,필동,중구
337, 창경궁 입구 ,5,37.578979,126.996475,종로1·2·3·4가동,종로구
338, 세운스퀘어 앞 ,18,37.570957,126.997123,종로1·2·3·4가동,종로구
339, 종로4가 사거리 ,10,37.571067,126.998191,종로1·2·3·4가동,종로구
340, 혜화동 로터리 ,8,37.585628,127.000679,혜화동,종로구
341, 혜화역 3번출구 뒤 ,8,37.581569,127.001785,이화동,종로구
342, 대학로 마로니에공원 ,22,37.579784,127.002532,이화동,종로구
343, 힐스테이트창경궁 아파트 앞 ,6,37.575611,127.004699,종로5·6가동,종로구
344, 성균관대 E하우스 앞 ,10,37.574199,127.006591,종로5·6가동,종로구
345, 서울보증보험본사 앞 ,18,37.573307,127.000709,종로5·6가동,종로구
346, 맥스타일 앞 ,10,37.569183,127.00988,광희동,중구
347, 동대문역사문화공원역 9번출구 앞 ,18,37.56533,127.007843,광희동,중구
348, 독립문역 사거리 ,14,37.572029,126.960784,교남동,종로구
349, 어린이도서관 ,5,37.576332,126.968589,사직동,종로구
351, 청운초교 앞 삼거리 ,5,37.584968,126.970413,청운효자동,종로구
353, 재동초교 앞 삼거리 ,8,37.579387,126.984947,가회동,종로구
354, 포르투갈 대사관 앞 ,10,37.579154,126.98896,가회동,종로구
355, 서울사대부설초등학교 앞 ,15,37.576507,127.002456,이화동,종로구
356, KT혜화지사 앞 ,15,37.577144,127.002059,이화동,종로구
358, 성균관대입구 사거리 A ,13,37.5825,126.998535,혜화동,종로구
359, 원남동사거리 ,8,37.576061,126.99768,종로1·2·3·4가동,종로구
361, 동묘앞역 1번출구 뒤 ,10,37.573242,127.015907,숭인1동,종로구
362, 청계8가사거리 A ,10,37.572196,127.02304,숭인2동,종로구
363, 신설동역 11번출구 뒤 ,13,37.575592,127.02285,숭인2동,종로구
364, 창신역 1번출구 앞 ,8,37.579334,127.015083,창신3동,종로구
367, 독립문역 3-1번출구  ,13,37.574157,126.958518,무악동,종로구
368, SK 서린빌딩 앞 ,15,37.569248,126.980537,종로1·2·3·4가동,종로구
370, 시청역(2호선) 9번출구 뒤 ,24,37.563228,126.974838,소공동,중구
371, 동대입구역 6번출구 뒤 ,10,37.558872,127.005538,장충동,중구
372, 약수역 3번출구 뒤 ,10,37.554294,127.011199,약수동,중구
374, 청구역 2번출구 앞 ,12,37.560474,127.014076,동화동,중구
379, 서울역9번출구 ,7,37.555999,126.973358,회현동,중구
380, CJ제일제당 앞 ,8,37.563865,127.002746,광희동,중구
381, 장충체육관 ,15,37.558532,127.006988,장충동,중구
382, 약수역 10번출구 앞 ,7,37.555198,127.010047,다산동,중구
383, 신당역 12번 출구 뒤 ,22,37.565849,127.016403,신당동,중구
384, 종로학원본원  ,10,37.55978,126.968505,중림동,중구
385, 종각역 5번출구 ,10,37.569835,126.982658,종로1·2·3·4가동,종로구
387, 훈련원공원주차장 앞 ,10,37.566993,127.003463,을지로동,중구
388, 동성중학교 앞 ,10,37.585735,127.001609,혜화동,종로구
389, 을지로4가역 1번출구 ,10,37.56673,126.996604,을지로동,중구
390, 충무로역 1번출구 ,12,37.561389,126.995353,필동,중구
391, 시립미술관 ,8,37.565052,126.973403,소공동,중구
393, 동대문역 8번 출구 ,12,37.57014,127.009376,종로5·6가동,종로구
394, 경희궁 자이 3단지 ,15,37.567489,126.965919,교남동,종로구
395, 경희궁 자이 2단지 ,8,37.568855,126.964561,교남동,종로구
397, 종묘공영주차장 건너편 ,13,37.57048,126.996635,종로1·2·3·4가동,종로구
398, 을지로3가역 3번출구 ,8,37.566558,126.992439,을지로동,중구
399, 서울역 센트럴 자이아파트 ,15,37.554107,126.965408,중림동,중구
400, 상암한화오벨리스크 1차 앞 ,14,37.587524,126.883003,상암동,마포구
401, 상암월드컵파크 10단지 앞 ,13,37.586189,126.881614,상암동,마포구
402, 상암월드컵파크 9단지 앞 ,20,37.582927,126.879837,상암동,마포구
403, 부엉이공원 앞 ,20,37.58559,126.884727,상암동,마포구
405, DMC빌 앞 ,8,37.582656,126.885787,상암동,마포구
406, 상암월드컵파크 7단지 앞 ,15,37.581111,126.880874,상암동,마포구
407, 마포구 육아종합지원센터 ,8,37.580631,126.883674,상암동,마포구
408, LG CNS앞 ,14,37.58081,126.88665,상암동,마포구
409, 누리꿈스퀘어 옆 ,30,37.579399,126.88916,상암동,마포구
410, 상암중학교 옆 ,10,37.577392,126.887474,상암동,마포구
411, DMC홍보관 ,10,37.577995,126.891471,상암동,마포구
412, DMC산학협력연구센터 앞 ,21,37.575656,126.890792,상암동,마포구
413, 상암월드컵파크 3단지 후문 ,10,37.571475,126.889686,상암동,마포구
414, 상암동주민센터 옆 ,8,37.57822,126.89447,상암동,마포구
415, DMC역 9번출구 앞 ,10,37.577468,126.897361,상암동,마포구
416, 상암월드컵파크 1단지 교차로 ,12,37.575664,126.894447,상암동,마포구
417, DMC역 2번출구 옆 ,20,37.575069,126.899917,상암동,마포구
418, 월드컵경기장역 3번출구 옆 ,20,37.57048,126.898895,성산2동,마포구
419, 홈플러스 마포점 앞 ,21,37.56842,126.899429,성산2동,마포구
420, 서울시 공공자전거 상암센터 ,37,37.566246,126.896179,성산2동,마포구
421, 마포구청 앞 ,8,37.565746,126.901863,성산2동,마포구
422, 문화비축기지 ,9,37.568977,126.894401,성산2동,마포구
424, 롯데하이마트 (상암월드컵점) ,15,37.573619,126.898048,상암동,마포구
425, DMC첨단산업센터 ,10,37.584503,126.885597,상암동,마포구
426, 서울신용보증재단 ,10,37.54906,126.954177,아현동,마포구
427, 성산시영아파트 ,10,37.569583,126.903816,성산2동,마포구
428, 명보사거리 ,10,37.564399,126.991432,을지로동,중구
429, 송도병원 ,8,37.549888,127.007347,다산동,중구
430, 장충동먹자골목 앞 ,6,37.562126,127.006256,광희동,중구
431, 청계천 영도교 ,25,37.571014,127.019744,황학동,중구
432, 마포중앙도서관 ,10,37.563339,126.908203,성산1동,마포구
433, 을지로입구역 2번출구 ,12,37.566345,126.982292,명동,중구
434, 신당 래미안 버스정류장 ,10,37.561489,127.023933,신당5동,중구
435, SK 남산빌딩 ,10,37.556861,126.975616,회현동,중구
436, 이대역 5번출구 ,10,37.556591,126.946189,대흥동,마포구
437, 대흥역 1번출구 ,12,37.548469,126.940925,대흥동,마포구
438, 성산2-1 공영주차장 ,15,37.56472,126.906768,성산2동,마포구
440, 하늘공원 입구 ,15,37.570121,126.881347,상암동,마포구
441, 염천교사거리 ,15,37.55989,126.971496,소공동,중구
442, 서울역 서부 ,13,37.556415,126.969192,중림동,중구
443, 호암아트홀 ,9,37.56211,126.970718,소공동,중구
445, 대한상공회의소 ,15,37.560153,126.974105,소공동,중구
446, 상명대입구 ,13,37.600128,126.957832,부암동,종로구
447, 신영동삼거리 ,6,37.603992,126.961944,부암동,종로구
449, 일성아파트 ,10,37.608718,126.972862,평창동,종로구
450, 효자동 삼거리 ,51,37.583602,126.972549,청운효자동,종로구
451, 청와대앞길 ,8,37.583515,126.979667,삼청동,종로구
452, 동대문 종합시장 버스정류장 ,13,37.571239,127.004409,종로5·6가동,종로구
453, 종로오가 지하쇼핑센터 14번출구 ,10,37.57114,127.000671,종로5·6가동,종로구
454, 종로2가 버스정류장 (종각방향) ,13,37.570358,126.986381,종로1·2·3·4가동,종로구
455, 종로6가역 버스정류장(동대문 방향) ,8,37.570961,127.006057,종로5·6가동,종로구
456, 숭인2동 주민센터 입구 ,10,37.57447,127.019828,숭인2동,종로구
457, 종로꽃시장 입구 옆 ,10,37.571319,127.007209,종로5·6가동,종로구
458, 광화문역 5번출구 ,21,37.569892,126.977569,종로1·2·3·4가동,종로구
461, 서울지방경찰청 ,10,37.574363,126.972366,사직동,종로구
462, 신영동삼거리(북악터널방향) ,10,37.603511,126.962066,부암동,종로구
464, 삼청동 골목 ,10,37.58419,126.981697,삼청동,종로구
465, 삼청공원 앞 ,5,37.587604,126.983596,삼청동,종로구
466, 롯데호텔 ,13,37.565841,126.979812,소공동,중구
467, 한국은행 ,11,37.562213,126.980865,소공동,중구
468, 웨스틴 조선호텔 ,8,37.564159,126.979484,소공동,중구
469, 회현역 1번출구 ,11,37.55923,126.98014,회현동,중구
470, 회현역 7번출구 ,13,37.559745,126.980003,회현동,중구
471, 회현사거리 남측 ,10,37.560359,126.98265,명동,중구
472, 삼일교(시그니쳐 타워) ,12,37.567871,126.988403,명동,중구
473, 을지로4가역 9번출구 ,20,37.566051,126.997985,을지로동,중구
474, 동대문역사문화공원역 1번출구 뒤편 ,40,37.566299,127.008491,광희동,중구
475, DDP 패션몰 ,21,37.567649,127.01181,신당동,중구
476, 광희문 ,10,37.56443,127.009956,광희동,중구
477, 앰배서더 호텔 주변 ,10,37.559288,127.002685,장충동,중구
479, 동대입구역 3번 출구 ,8,37.559375,127.006027,장충동,중구
480, 약수역 6번 출구 ,8,37.554321,127.010704,약수동,중구
483, 남산타운아파트 버스정류장 ,12,37.547584,127.006439,약수동,중구
484, 도동삼거리 ,12,37.556148,126.977424,회현동,중구
485, 서울역5번출구 ,10,37.55677,126.973197,회현동,중구
486, 평창동주민센터 앞 ,5,37.606273,126.968322,평창동,종로구
487, 신석초교앞 교차로 교통섬 ,15,37.54364,126.938308,용강동,마포구
488, 푸르메병원 ,10,37.584568,126.88021,상암동,마포구
489, 구룡근린공원 ,10,37.583202,126.882766,상암동,마포구
490, 가온문화공원 ,23,37.582077,126.887664,상암동,마포구
491, 월드컵파크 4단지 ,10,37.575977,126.888069,상암동,마포구
493, 홍대입구역 6번출구 ,7,37.556575,126.928855,서교동,마포구
494, 신수동주민센터 ,5,37.547245,126.935028,신수동,마포구
495, 염리초등학교 앞 ,10,37.54243,126.946998,용강동,마포구
497, 합정동주민센터 앞 ,25,37.551754,126.9123,합정동,마포구
498, 연남동주민센터 앞 ,10,37.564651,126.922126,연남동,마포구
500, 어린이대공원역 3번출구 앞 ,7,37.547069,127.074272,화양동,광진구
501, 광진구의회 앞 ,30,37.537307,127.07035,자양3동,광진구
502, 자양(뚝섬한강공원)역 1번출구 앞 ,33,37.53186,127.067192,자양3동,광진구
505, 자양사거리 광진아크로텔 앞 ,12,37.53701,127.082244,자양1동,광진구
506, 금호 어울림 아파트 앞 ,7,37.54906,127.057792,송정동,성동구
508, 성수아카데미타워 앞 ,10,37.545166,127.05751,성수2가3동,성동구
510, 뚝도아리수정수센터 버스정류소 옆 ,15,37.541221,127.0438,성수1가1동,성동구
511, 서울숲역 5번 출구 옆 ,16,37.544582,127.044609,성수1가1동,성동구
512, 뚝섬역 1번 출구 옆 ,15,37.548561,127.045005,성수1가2동,성동구
513, 뚝섬역 5번 출구 정류소 옆 ,13,37.546306,127.049804,성수1가2동,성동구
514, 성수사거리 버스정류장 앞 ,12,37.542579,127.063308,성수2가3동,성동구
515, 광양중학교 앞 ,15,37.530235,127.08683,자양2동,광진구
516, 광진메디칼 앞 ,10,37.548404,127.069366,군자동,광진구
518, 청계천 박물관 앞 ,20,37.571525,127.035354,마장동,성동구
519, 양지사거리 ,20,37.566993,127.029914,왕십리도선동,성동구
520, 상왕십리역 4번 출구 앞 ,7,37.563858,127.030319,왕십리2동,성동구
521, 왕십리역 11번 출구 앞 ,14,37.561447,127.034919,행당1동,성동구
522, 금호역 1번출구 앞 ,9,37.548641,127.016426,금호2·3가동,성동구
523, 옥수동성당 옆 ,7,37.543663,127.01406,옥수동,성동구
524, 래미안금호하이리버 아파트 102동 옆 ,10,37.5522,127.025054,금호2·3가동,성동구
525, 한양대병원사거리 ,20,37.558052,127.040351,사근동,성동구
526, 용답토속공원 앞 ,10,37.56351,127.056724,용답동,성동구
529, 장한평역 8번 출구 앞 ,8,37.56137,127.063659,용답동,성동구
530, 청계벽산아파트 앞 ,9,37.568748,127.030403,왕십리도선동,성동구
533, 금남시장 교차로 ,7,37.548149,127.021087,금호4가동,성동구
534, 금호사거리 ,10,37.548633,127.025726,금호2·3가동,성동구
535, 응봉삼거리 ,11,37.553985,127.033592,응봉동,성동구
536, 행당역 2번출구 앞 ,8,37.55735,127.029212,행당2동,성동구
537, 한양대후문역 부근 ,10,37.560356,127.041397,사근동,성동구
538, 답십리역 8번출구 앞 ,15,37.567649,127.051155,용답동,성동구
539, 군자교교차로 ,10,37.559795,127.074203,중곡1동,광진구
540, 군자역 7번출구 베스트샵 앞 ,8,37.55603,127.078643,군자동,광진구
542, 강변역 4번출구 뒤 ,19,37.535823,127.094161,구의3동,광진구
543, 구의공원(테크노마트 앞) ,20,37.535968,127.094673,구의3동,광진구
544, 광남중학교 ,10,37.540729,127.102905,광장동,광진구
546, 잠실대교북단 교차로 ,8,37.532478,127.08509,자양1동,광진구
548, 자양나들목 ,20,37.529769,127.074859,자양2동,광진구
549, 아차산역 3번출구 ,10,37.551223,127.089706,구의2동,광진구
550, 서울시설공단 앞 ,20,37.57164,127.035659,마장동,성동구
551, 구의삼성쉐르빌 앞 ,13,37.540061,127.094497,구의3동,광진구
552, 대림아크로리버 앞 ,9,37.536579,127.092971,구의3동,광진구
553, 중곡 성원아파트 앞 ,19,37.571254,127.079803,중곡3동,광진구
555, 구의3동주민센터 ,9,37.537849,127.09217,구의3동,광진구
556, 달맞이공원 ,14,37.542053,127.020401,금호4가동,성동구
557, 도선동 주민센터 앞 ,10,37.567642,127.025695,왕십리도선동,성동구
558, 성동광진 교육지원청 앞 ,20,37.564605,127.036521,행당1동,성동구
559, 왕십리역 4번 출구 건너편 ,13,37.561096,127.036796,행당1동,성동구
560, 비전교회 앞 ,8,37.551204,127.068931,송정동,성동구
561, 서울숲역 2번출구 앞 ,10,37.542816,127.04467,성수1가1동,성동구
562, 군자지하보도 앞 ,10,37.559246,127.07341,송정동,성동구
563, 성동세무서 건너편 ,10,37.547912,127.062751,성수2가3동,성동구
564, 금호역 3번출구 ,10,37.547927,127.015571,금호4가동,성동구
565, 옥수역 3번출구 ,19,37.541366,127.017761,옥수동,성동구
567, 성수역 2번출구 앞 ,15,37.54459,127.057083,성수2가3동,성동구
568, 청계8가 사거리 B ,14,37.571102,127.023559,왕십리도선동,성동구
569, 응봉현대아파트 정류소 ,10,37.549583,127.030242,응봉동,성동구
571, 세종대학교 대양AI센터 ,20,37.550395,127.075859,군자동,광진구
573, 구의문주차장 앞 ,10,37.54523,127.084732,능동,광진구
575, 대원중고교 입구(대하빌딩) ,10,37.564292,127.086936,중곡4동,광진구
576, 광나루역 3번 출구 ,10,37.54483,127.104263,광장동,광진구
577, 광진청소년수련관 ,10,37.546546,127.106132,광장동,광진구
578, 성동세무서 부근 ,8,37.54829,127.062461,송정동,성동구
579, 마장역 4번출구 ,8,37.565204,127.041847,마장동,성동구
582, 경일중학교 앞 ,10,37.543178,127.049079,성수1가1동,성동구
583, 청계천 생태교실 앞 ,25,37.56797,127.04689,마장동,성동구
584, 광진광장 교통섬 ,20,37.547828,127.072631,군자동,광진구
585, 성수2가1동 공영주차장 인근 ,9,37.536808,127.055488,성수2가1동,성동구
586, 마장동 주민센터 ,10,37.56594,127.045394,마장동,성동구
587, 유니베라 앞 ,10,37.545417,127.052642,성수2가3동,성동구
588, 뚝섬 유원지역 ,20,37.532688,127.067497,자양3동,광진구
589, 성수역3번출구 ,8,37.544158,127.056655,성수2가3동,성동구
590, 건국대학교 (입학정보관) ,20,37.53989,127.073364,화양동,광진구
591, 건국대학교 (행정관) ,5,37.542778,127.07537,화양동,광진구
592, 건국대학교 학생회관 ,30,37.541912,127.077636,화양동,광진구
593, 자양중앙나들목 ,8,37.528453,127.078033,자양2동,광진구
594, 중랑물재생센터(서울새활용플라자) ,15,37.558303,127.058059,용답동,성동구
600, 휘경2동 주민센터 ,10,37.589912,127.068679,휘경2동,동대문구
601, 용신동주민센터 ,10,37.575946,127.037361,용신동,동대문구
602, 장안동 사거리 ,10,37.572174,127.071388,장안2동,동대문구
605, 신설동역8번출구 ,8,37.574199,127.026496,용신동,동대문구
606, 휘경공고앞 ,15,37.584625,127.070289,휘경2동,동대문구
607, 신이문역 2번출구 ,15,37.60271,127.067863,이문2동,동대문구
608, 전농삼성아파트 ,10,37.58131,127.055343,전농2동,동대문구
609, 제기2교 ,30,37.587745,127.037384,제기동,동대문구
610, 동대문중 교차로 ,10,37.573085,127.052162,답십리1동,동대문구
612, 시립동부병원 앞 사거리 ,20,37.573665,127.030815,용신동,동대문구
613, 신설동역 10번출구 앞 ,8,37.575271,127.023468,용신동,동대문구
614, 용두동 사거리 ,23,37.577686,127.031013,용신동,동대문구
615, 용두동 래미안허브리츠아파트 앞 ,25,37.576381,127.03511,용신동,동대문구
616, 서울시립대 정문 앞 A ,10,37.582561,127.054367,전농2동,동대문구
617, 청솔우성아파트 앞 ,20,37.574203,127.057693,답십리2동,동대문구
621, 전농초등학교 건너편 ,8,37.57489,127.053535,전농1동,동대문구
622, 전농사거리 교통섬 ,15,37.577793,127.05783,전농2동,동대문구
623, 서울시립대 정문 앞 B ,25,37.583698,127.053855,전농1동,동대문구
624, 전농동 동아아파트 앞 ,10,37.574188,127.04589,전농1동,동대문구
626, 군자교 서측 녹지대 ,17,37.561153,127.070968,장안1동,동대문구
627, 장안동삼거리 교통섬 ,10,37.578632,127.071907,장안2동,동대문구
628, 휘봉고등학교 앞 ,15,37.586814,127.067543,휘경2동,동대문구
630, 동대문구 보건소 ,15,37.574851,127.040306,용신동,동대문구
631, 답십리역 1번출구 ,15,37.568183,127.051277,답십리1동,동대문구
633, 청량리 기업은행 앞 ,8,37.580406,127.044822,청량리동,동대문구
634, 외국어대 정문 앞 ,24,37.596019,127.059829,이문1동,동대문구
635, 시조사 앞 ,12,37.587516,127.052772,회기동,동대문구
636, 세종대왕기념관 교차로 ,9,37.5909,127.042587,청량리동,동대문구
637, KAIST 경영대학 앞 ,10,37.591613,127.045791,청량리동,동대문구
638, 서울시립대 정보기술관 ,10,37.583007,127.060974,전농2동,동대문구
639, 서울시립대 후문 ,14,37.585124,127.060951,전농2동,동대문구
640, 동대문경찰서 교차로 ,6,37.58255,127.044601,청량리동,동대문구
641, 용두역 4번출구 ,10,37.573753,127.038536,용신동,동대문구
642, 신답역 사거리 ,9,37.570354,127.048431,답십리1동,동대문구
643, 동대문구민체육센터 (육교아래) ,10,37.56697,127.074295,장안1동,동대문구
646, 장한평역 1번출구 ,10,37.561965,127.064506,장안1동,동대문구
648, 장안동위더스빌옆 ,15,37.566699,127.062423,장안1동,동대문구
650, 중랑교사거리 ,20,37.591533,127.067741,휘경2동,동대문구
652, 답십리 래미안엘파인아파트 입구 ,10,37.57653,127.06594,전농2동,동대문구
654, 전농동 텃골공원 ,10,37.577621,127.052108,전농1동,동대문구
656, 영휘원 교차로 ,10,37.587238,127.043136,청량리동,동대문구
657, 동대문롯데캐슬아파트 앞 ,13,37.575733,127.048477,전농1동,동대문구
659, 제기동역 1번출구 ,25,37.57835,127.033386,제기동,동대문구
660, 동의보감타워 ,10,37.577999,127.037628,용신동,동대문구
661, 경희대학교 청운관 ,15,37.5946,127.051971,회기동,동대문구
663, 외대앞역 3번출구 ,10,37.59489,127.063026,휘경1동,동대문구
664, 서울시립대 건설공학관 ,10,37.584129,127.057937,전농2동,동대문구
665, 이문동 쌍용아파트 정문 ,11,37.599605,127.068641,이문2동,동대문구
666, 이문대성유니드아파트 앞 ,20,37.603622,127.070831,이문2동,동대문구
667, 청량차도 육교 밑 ,7,37.586708,127.046882,청량리동,동대문구
668, 서울축산농협(장안지점) ,10,37.567871,127.068717,장안1동,동대문구
669, 청계한신휴플러스앞 삼거리 ,10,37.572147,127.044609,답십리1동,동대문구
670, 삼육서울병원 버스정류장 ,9,37.589687,127.061409,휘경2동,동대문구
671, 대광빌딩 ,10,37.577342,127.023376,용신동,동대문구
672, 대광고등학교 ,17,37.57875,127.024024,용신동,동대문구
673, 안암골벽산아파트(후문) ,10,37.584079,127.031036,제기동,동대문구
674, 고대앞사거리 교통섬 ,15,37.586551,127.033142,제기동,동대문구
676, FITI시험연구원 앞 ,9,37.581432,127.035476,제기동,동대문구
678, 장안힐스테이트(아) 앞 ,21,37.576557,127.07431,장안2동,동대문구
679, 전농SK아파트 앞 ,10,37.577877,127.061683,전농2동,동대문구
680, 꿈마루어린이도서관 앞 ,22,37.592384,127.057411,이문1동,동대문구
681, 서울특별시 동부교육지원청(육교) ,14,37.579837,127.056373,전농2동,동대문구
701, 목동사거리 부근 ,8,37.532802,126.863929,목4동,양천구
702, 목4동주민센터 옆 ,19,37.532543,126.868728,목4동,양천구
703, 오목교역 7번출구 앞 ,12,37.523628,126.875244,목1동,양천구
704, 남부법원검찰청 교차로 ,14,37.523254,126.864906,신정4동,양천구
706, 신정네거리역 ,15,37.521881,126.851753,신월2동,양천구
708, 서울출입국관리사무소 앞 ,16,37.51897,126.869964,신정6동,양천구
709, 신정3동 현장민원실 앞 ,20,37.511585,126.84156,신정3동,양천구
710, 금옥여고보도육교 ,10,37.509712,126.844169,신정3동,양천구
711, 신일해피트리아파트 앞 ,20,37.517059,126.848487,신월2동,양천구
712, 강월초교입구 사거리 ,14,37.516998,126.838317,신월7동,양천구
713, 양서중학교 옆 ,20,37.533046,126.829956,신월3동,양천구
714, 한국SGI 양천문화회관 앞 ,10,37.532547,126.830802,신월1동,양천구
716, 신정6동 주민센터 인근 ,23,37.517318,126.864318,신정6동,양천구
719, 홍익병원앞 교차로 ,10,37.530368,126.864257,목4동,양천구
720, 서울강월초등학교 앞 ,10,37.516197,126.834899,신월7동,양천구
722, 경서농협 버스정류장(우리은행신정동지점방향) ,10,37.521511,126.857383,신정1동,양천구
723, SBS방송국 ,15,37.529163,126.872749,목1동,양천구
724, 계남공원 입구 주출입구 좌측 ,10,37.510597,126.857322,신정3동,양천구
725, 양강중학교앞 교차로 ,15,37.524333,126.850547,신월2동,양천구
726, 목동3단지 시내버스정류장 ,18,37.534389,126.869598,목4동,양천구
729, 서부식자재마트 건너편 ,10,37.510379,126.866798,신정7동,양천구
731, 서울시 도로환경관리센터 ,10,37.529899,126.876541,목1동,양천구
732, 신월중학교 ,10,37.53955,126.8283,신월5동,양천구
733, 신정이펜하우스314동 ,10,37.514099,126.831001,신정3동,양천구
734, 신트리공원 입구 ,10,37.51395,126.856056,신정1동,양천구
735, 영도초등학교 ,10,37.536376,126.871513,목5동,양천구
736, 오솔길공원 ,10,37.52219,126.8367,신월7동,양천구
737, 장수공원 ,10,37.52256,126.849479,신월2동,양천구
739, 신월사거리 ,15,37.536201,126.827796,신월3동,양천구
741, 화곡로 입구 교차로 ,10,37.53952,126.825401,신월3동,양천구
742, 등촌역 5번 출구 뒤 ,10,37.550731,126.864578,목3동,양천구
743, 현대6차아파트 101동 옆 ,10,37.508899,126.842681,신정3동,양천구
744, 신목동역 2번 출구 ,40,37.543842,126.882545,목5동,양천구
745, 강서초등학교 ,10,37.522281,126.839698,신월4동,양천구
746, 목동2단지 상가 ,10,37.536502,126.877746,목5동,양천구
747, 목동3단지 상가 ,10,37.53458,126.875648,목5동,양천구
748, 목동운동장 ,15,37.53025,126.879302,목1동,양천구
749, 이대목동병원보도육교 ,10,37.537227,126.886611,목5동,양천구
750, 연의근린공원 건너편 ,10,37.512157,126.835624,신정3동,양천구
752, 성원2차 아파트 ,10,37.542182,126.863304,목3동,양천구
754, 목동1단지아파트 118동 앞 ,10,37.541141,126.876678,목5동,양천구
755, 목동1단지아파트 상가 앞 ,7,37.537868,126.881408,목5동,양천구
756, 목동주차장 ,15,37.526679,126.876167,목1동,양천구
757, 신정이펜하우스 1단지아파트 입구 사거리 ,10,37.514278,126.828742,신정3동,양천구
759, 보아스아파트 앞 ,10,37.52407,126.8386,신월4동,양천구
760, 잣절보도육교 아래 ,10,37.50682,126.844299,신정3동,양천구
762, 오목로 무중력지대 앞 ,10,37.524742,126.877662,목1동,양천구
763, 목동11단지 아파트 ,10,37.510658,126.859161,신정7동,양천구
765, 오목교역 3번출구 ,12,37.524776,126.87548,목1동,양천구
766, 신목동역 3번출구 ,15,37.543949,126.883461,목5동,양천구
767, 신정숲속마을아파트 ,10,37.505744,126.836311,신정3동,양천구
768, 목동5단지아파트 501동 ,15,37.535667,126.881584,목5동,양천구
769, CBS방송국 앞 ,20,37.527854,126.874671,목1동,양천구
770, 목동역5번출구 교통정보센터 앞 ,15,37.525714,126.864868,목1동,양천구
771, 목동아파트 703동 앞 ,8,37.528205,126.870162,목1동,양천구
773," 염창역 3, 4번 출구 사이 ",10,37.546707,126.874572,목2동,양천구
774, 등촌역 4번 출구  ,11,37.549507,126.867218,목3동,양천구
775, 세종그랑시아 앞(102동) ,10,37.538375,126.86383,목4동,양천구
776, 목마공원 ,15,37.538742,126.885681,목5동,양천구
777, 신월6차보람아파트 앞 ,10,37.530128,126.834777,신월1동,양천구
779, 신정1동 주민센터 앞 ,20,37.518543,126.853881,신정1동,양천구
780, 신정교 하부 ,15,37.517337,126.877647,신정2동,양천구
781, 신정보도육교 아래 ,15,37.517593,126.876556,신정2동,양천구
782, 서남병원 후문 ,20,37.511672,126.83274,신정3동,양천구
785," 양천구청, 보건소 사잇길 ",24,37.517475,126.866325,신정6동,양천구
786, 목동아파트 8단지 상가동 앞 ,9,37.520072,126.868301,신정6동,양천구
787, 양천아파트 입구 ,14,37.507904,126.862648,신정7동,양천구
788, 양천구청역 2번출구 옆 ,15,37.512287,126.86528,신정7동,양천구
791, 현대하이페리온 ,15,37.524906,126.869789,목1동,양천구
792, 목동트라팰리스 웨스턴에비뉴 ,20,37.525371,126.870925,목1동,양천구
793, 목동5단지아파트 534동 ,15,37.53302,126.877899,목5동,양천구
794, 양천문화회관 ,10,37.516864,126.86296,신정6동,양천구
795, 양천 해누리타운 ,22,37.515842,126.864112,신정6동,양천구
796, 목동아파트 14단지 B상가 앞 ,10,37.514663,126.87194,신정6동,양천구
797, 목동아파트 1422동 1434동 사잇길 ,10,37.515155,126.872489,신정6동,양천구
800, 목월공원 앞 ,15,37.532432,126.954742,원효로2동,용산구
802, 한강진역 2번 출구 앞 ,9,37.541152,127.002212,한남동,용산구
803, 한남초교 앞 보도육교 ,10,37.538139,127.004096,한남동,용산구
805, 문배어린이공원 앞 ,9,37.536758,126.970001,원효로1동,용산구
806, 전자랜드 본관 앞 ,20,37.533065,126.960731,한강로동,용산구
807, 서울역 12번 출구 앞 ,10,37.552276,126.972686,남영동,용산구
808, 서빙고동 금호맨션 앞 ,10,37.520504,126.989738,서빙고동,용산구
809, 한남 유수지 복개주차장 ,10,37.530166,127.007438,한남동,용산구
810, 이태원지하보도 ,10,37.53841,126.986648,용산2가동,용산구
811, 녹사평역1번출구 ,20,37.535079,126.985382,용산2가동,용산구
812, 용산전쟁기념관 ,10,37.534839,126.977661,남영동,용산구
813, 삼각지역 3번출구 ,20,37.533512,126.972274,한강로동,용산구
815, LIG강촌아파트 103동앞 ,30,37.518508,126.978797,이촌1동,용산구
816, 신용산역 6번출구 앞 ,25,37.530147,126.968482,한강로동,용산구
817, 삼각지역 4번출구 앞 ,9,37.533451,126.971733,한강로동,용산구
818, 숙명여대 입구 교차로 ,12,37.544895,126.969383,청파동,용산구
819, 선린인터넷 고등학교 ,12,37.541652,126.970504,청파동,용산구
820, 청파동입구 교차로 ,10,37.549026,126.971946,남영동,용산구
822, 이촌1동 마을공원 ,10,37.522026,126.966186,한강로동,용산구
823, 효창동주민센터 앞 ,10,37.54232,126.961959,효창동,용산구
825, 서빙고동 주민센터 앞 ,15,37.520336,126.994262,서빙고동,용산구
826, 서울역 서부교차로2 ,20,37.555366,126.968643,청파동,용산구
827, 국군복지단 ,14,37.541885,126.97966,용산2가동,용산구
828, 숙대입구역 8번 ,7,37.544078,126.972,남영동,용산구
829, 한강대교 북단 교차로 ,40,37.52293,126.961692,한강로동,용산구
830, 강변삼성스위트아파트 앞 ,10,37.534423,126.94857,원효로2동,용산구
831, 이태원관광특구입구A(녹사평역쪽) ,10,37.534278,126.988563,이태원1동,용산구
832, 이촌1동 주민센터 뒤 ,20,37.521282,126.973464,이촌1동,용산구
834, 효창공원앞역 3번출구 뒤 ,15,37.539009,126.96138,용문동,용산구
835, 남영역 건너편 ,9,37.54198,126.971542,남영동,용산구
836, 현대자동차서비스 앞 ,15,37.531421,126.951499,원효로2동,용산구
837, 한남나들목 입구 ,10,37.528987,127.006622,한남동,용산구
838, 숙대입구역 4번출구 ,8,37.54446,126.972389,남영동,용산구
839, 보광동 삼성리버빌아파트 앞 ,10,37.524009,127.001449,보광동,용산구
840, 용산 파크타워 앞 ,10,37.523651,126.970268,한강로동,용산구
841, 신용산역 1번 출구 ,25,37.529609,126.968872,한강로동,용산구
843, 이태원관광특구B(용산구청쪽) ,19,37.533798,126.98867,이태원1동,용산구
844, 이촌2동 동원베네스트 아파트 앞 ,15,37.527149,126.955162,이촌2동,용산구
845, 용산 선인상가 ,16,37.532699,126.964378,한강로동,용산구
846, 용산중학교 ,15,37.546501,126.980949,용산2가동,용산구
848, 삼각지12번 출구 ,10,37.534889,126.975624,남영동,용산구
849, 삼각지 자이아파트 ,20,37.536079,126.973419,한강로동,용산구
850, KCC용산월츠타워  ,15,37.537399,126.968925,원효로1동,용산구
851, 효창 푸르지오 앞 ,10,37.540477,126.958114,효창동,용산구
852, 청암자이아파트 앞 ,30,37.534526,126.947181,원효로2동,용산구
853, 용산역 맞은편 ,19,37.528488,126.965843,한강로동,용산구
854, HID 유족동지회 앞 ,10,37.538509,127.00148,한남동,용산구
855, 이촌역5번출구 앞 ,10,37.522724,126.97277,한강로동,용산구
857, 현대 안성타워 ,10,37.535087,126.99797,한남동,용산구
858, 녹사평역3번 출구 ,10,37.534408,126.986892,용산2가동,용산구
859, 남산공원 야외식물원 앞 ,10,37.541885,126.995864,이태원2동,용산구
860, LG한강 자이아파트 앞 ,22,37.520748,126.970825,이촌1동,용산구
863, 이촌역2번 출구 ,10,37.52177,126.977005,한강로동,용산구
864, 순천향대학병원(한남오거리) ,10,37.53514,127.006004,한남동,용산구
865, 하얏트호텔 앞 ,10,37.540794,126.997848,한남동,용산구
866, 브라운스톤 남산아파트 ,10,37.551548,126.97686,후암동,용산구
867, 서빙고역 광장(1번출구) ,10,37.519908,126.989234,서빙고동,용산구
869, 노들섬 동측 앞 ,10,37.517295,126.959144,이촌1동,용산구
870, 노들섬 서측 앞 ,10,37.517318,126.958297,이촌2동,용산구
900, 은평예술회관 ,20,37.603942,126.927696,녹번동,은평구
902, 진관동 은빛초등학교 ,10,37.643108,126.91822,진관동,은평구
903, 은평뉴타운 아이파크 ,19,37.645866,126.927391,진관동,은평구
904, 은평뉴타운 푸르지오 ,16,37.648674,126.930702,진관동,은평구
905, 구파발역 2번출구 ,10,37.636234,126.918998,진관동,은평구
906, 연신내역 5번출구 ,9,37.61721,126.919578,대조동,은평구
907, CJ 드림시티 ,10,37.599491,126.916862,응암1동,은평구
908, 구산역 4번출구 ,10,37.613185,126.91735,갈현2동,은평구
909, 백련산 힐스테이트 3차 ,10,37.586994,126.922882,응암2동,은평구
911, 은평평화공원(역촌역4번출구) ,10,37.605583,126.922935,녹번동,은평구
912, 응암오거리 ,20,37.58966,126.916946,응암3동,은평구
913, 이마트 버스정류장(서부경찰서 방면) ,15,37.6007,126.920127,응암1동,은평구
914, 새절역 2번출구 ,20,37.590797,126.91365,신사2동,은평구
915, 증산역 4번출구 ,10,37.584381,126.909896,증산동,은평구
916, 평생학습관 앞 ,13,37.607849,126.921325,역촌동,은평구
917, 녹번역 3번출구 ,10,37.600761,126.935371,응암1동,은평구
919, 서울혁신파크 ,10,37.607025,126.933311,녹번동,은평구
921, 신도고등학교 ,8,37.630016,126.919029,진관동,은평구
922, 연신내역 4번출구 ,10,37.617801,126.921966,대조동,은평구
923, 국민은행 연서지점 ,10,37.620948,126.925636,불광1동,은평구
924, 메뚜기다리 ,12,37.628517,126.92958,진관동,은평구
925, 불광역 2번출구 ,8,37.609565,126.930976,불광1동,은평구
927, 연신내역 3번출구 인근 ,10,37.617855,126.922523,불광1동,은평구
928, 은평역사한옥박물관 ,15,37.641315,126.938041,진관동,은평구
930, 구 서부경찰서 건너편 ,7,37.601661,126.920303,역촌동,은평구
931, 역촌파출소 ,19,37.604736,126.915336,역촌동,은평구
932, 예일여중 ,20,37.610004,126.916397,구산동,은평구
933, 역촌종합시장 버스정류장(예일여고 방면) ,15,37.612483,126.914878,구산동,은평구
934, 신사동 성당 ,10,37.597141,126.909599,신사1동,은평구
937, 상림마을 롯데캐슬2단지 옆 ,10,37.645851,126.923797,진관동,은평구
938, 금암 문화공원 ,10,37.644683,126.918457,진관동,은평구
939, 은평구청 교차로 ,15,37.601699,126.927421,응암1동,은평구
941, 은평뉴타운 도서관 ,13,37.637222,126.933303,진관동,은평구
942, 상림마을 생태공원 ,9,37.644081,126.929283,진관동,은평구
943, 은평구청 보건소 ,10,37.602401,126.928649,녹번동,은평구
945, 기자촌 사거리 A ,10,37.63414,126.932342,진관동,은평구
946, 독바위역  ,16,37.618438,126.932884,불광1동,은평구
947, 연신내 선일하이츠빌 정류소 ,10,37.622669,126.91999,불광2동,은평구
948, 디지털미디어 시티역 4번출구(DMC역) ,10,37.577201,126.902351,증산동,은평구
949, 연신내역 1번 출구  ,6,37.619781,126.920806,불광2동,은평구
950, 구산역 2번 출구 예일여고 버스정류장 ,10,37.609802,126.916793,역촌동,은평구
952, 서울연신중학교 ,10,37.62265,126.925247,불광2동,은평구
953, 서울연신초등학교 ,10,37.625778,126.928817,불광2동,은평구
954, 은평뉴타운구파발9단지 ,10,37.642608,126.921478,진관동,은평구
956, 응암시장교차로 ,9,37.594413,126.918014,응암3동,은평구
958, 본 서부병원 버스정류장(은평 세무서 방면) ,13,37.60036,126.922813,응암1동,은평구
959, 구파발10단지 인근 ,10,37.643661,126.914558,진관동,은평구
960, 구파발역 환승센터 ,15,37.638252,126.919456,진관동,은평구
961, 불광역 9번 출구 ,8,37.610969,126.929809,불광1동,은평구
962, 은평뉴타운 힐데스하임 ,10,37.639259,126.918907,진관동,은평구
963, 대호프라자아파트 ,13,37.614429,126.932579,불광1동,은평구
964, 북한산힐스테이트 7차아파트 ,10,37.616542,126.925125,불광1동,은평구
965, 서울특별시 은평병원 ,10,37.593479,126.923187,응암2동,은평구
966, 서울혁신파크1 ,10,37.609447,126.934677,녹번동,은평구
967, 서울혁신파크2 ,13,37.608497,126.931999,녹번동,은평구
968, 은평뉴타운 상림마을 13단지 ,7,37.642089,126.929412,진관동,은평구
969, 은평 지웰테라스 ,9,37.643394,126.932136,진관동,은평구
971, 역촌 센트레빌 아파트 ,20,37.602329,126.906547,역촌동,은평구
973, 제각말푸르지오 5-1단지 아파트 ,10,37.637348,126.935844,진관동,은평구
974, 연신초등학교옆 마을마당 ,10,37.62672,126.929016,불광2동,은평구
975, 백련산 힐스테이트상가앞 ,10,37.590362,126.923011,응암2동,은평구
976, 진관고등학교앞 ,10,37.643508,126.924102,진관동,은평구
977, 신도중학교앞 ,10,37.633102,126.931503,진관동,은평구
978, 녹번 힐스테이트상가앞 ,10,37.601009,126.935928,녹번동,은평구
979, 원풍빌라앞 ,10,37.591861,126.906082,신사2동,은평구
982, 녹번초등학교(서오릉로) ,10,37.604125,126.925086,녹번동,은평구
984, 상신초등학교앞 버스정류장 ,9,37.595809,126.910263,신사1동,은평구
985, 은평세무서 버스정류장(은평구청 방면) ,10,37.601192,126.926383,응암1동,은평구
989, 신응교(가좌로) 앞 ,10,37.591812,126.914833,응암3동,은평구
991, 흥국사 정류장 ,10,37.656768,126.942008,진관동,은평구
992, 북한산입구 정류장 ,10,37.658287,126.945297,진관동,은평구
993, 은평뉴타운 은뜨락아파트앞 ,15,37.630287,126.919563,진관동,은평구
994, 북한산생태공원입구(교통섬) ,10,37.610507,126.938537,불광1동,은평구
995, 은평다목적체육관 ,10,37.631408,126.925407,진관동,은평구
996, 응암역2번출구 국민은행 앞 ,10,37.599967,126.915725,역촌동,은평구
1001, 광진교 남단 사거리(천호공원 방면) ,15,37.541793,127.124748,천호2동,강동구
1002, 해공공원(천호동) ,10,37.545265,127.125938,천호2동,강동구
1003, 해공도서관앞 ,20,37.543956,127.125488,천호2동,강동구
1004, 삼성광나루아파트 버스정류장 ,10,37.553329,127.128868,암사1동,강동구
1006, 롯데캐슬 115동앞 ,10,37.554866,127.142799,암사3동,강동구
1007, 암사동 선사유적지 ,14,37.559558,127.130874,암사2동,강동구
1008, 암사역 3번출구(국민은행앞) ,9,37.549354,127.127082,암사2동,강동구
1009, 천호역4번출구(현대백화점) ,20,37.538665,127.124244,천호2동,강동구
1010, 강동세무서 ,20,37.534507,127.138404,길동,강동구
1011, LIGA 아파트 앞 ,20,37.534744,127.135284,성내3동,강동구
1012, 천호역효성해링턴타워 앞 ,15,37.536006,127.122726,성내2동,강동구
1013, 강동구청역 1번 출입구 ,15,37.530715,127.120986,성내1동,강동구
1015, 샛마을 근린공원 ,13,37.550037,127.146911,명일1동,강동구
1016, 해뜨는 주유소옆 리엔파크 109동앞 ,10,37.559398,127.17118,강일동,강동구
1017, 둔촌고교입구 교차로(길동주민센터 방면) ,20,37.535446,127.145187,길동,강동구
1018, 둔촌 주공 GS 맞은편 ,15,37.524589,127.135421,둔촌1동,강동구
1019, 다성이즈빌아파트(호원대 대각선 맞은편) ,10,37.526794,127.130058,성내1동,강동구
1020, 강동경찰서 ,15,37.528251,127.1268,성내1동,강동구
1021, 강일동 리슈빌 빌딩앞 ,15,37.564273,127.173973,강일동,강동구
1022, 길동 사거리(초소앞) ,20,37.533779,127.137992,성내3동,강동구
1023, 한국종합기술사옥 앞 ,22,37.549983,127.174705,상일2동,강동구
1024,  강동구청 앞 ,10,37.529296,127.123153,성내1동,강동구
1025, 상일초등학교 ,10,37.54684,127.172515,상일1동,강동구
1027, 프라자 아파트 앞 ,20,37.535961,127.147819,둔촌2동,강동구
1028, 포레스 주상복합 빌딩 ,10,37.533107,127.122772,성내2동,강동구
1029, 성내어울터 ,7,37.536556,127.125534,성내2동,강동구
1030, 미호 플랜트 앞 ,15,37.52703,127.122062,성내1동,강동구
1032, 선사고등학교 ,20,37.556728,127.13626,암사3동,강동구
1033, 고덕동 아남아파트 ,17,37.557933,127.144767,고덕1동,강동구
1034, 고덕동 래미안 힐스테이트 ,10,37.561878,127.150787,고덕1동,강동구
1036, 고덕동 주양쇼핑 ,10,37.55199,127.153312,명일2동,강동구
1037, 강일리버파크 6단지 ,10,37.562564,127.177612,강일동,강동구
1038, 강일 다솜 어린이 공원 ,10,37.568637,127.174804,강일동,강동구
1039, 고덕초등학교 ,7,37.561298,127.167846,고덕2동,강동구
1041, 묘곡초등학교 ,10,37.559162,127.15332,고덕1동,강동구
1042, 강일리버파크 2~5단지 ,10,37.568546,127.177009,강일동,강동구
1044, 굽은다리역 ,15,37.545406,127.142677,천호1동,강동구
1048, 둔촌어린이공원 ,13,37.530994,127.142372,둔촌2동,강동구
1049, 강일리버파크 10단지 ,10,37.561203,127.180267,강일동,강동구
1050,  둔촌역 3번 출입구 ,15,37.526782,127.135574,성내3동,강동구
1051," 강일중,선사고 버스정류장(신암중학교 방면) ",15,37.554836,127.137321,암사3동,강동구
1053, 동명근린공원 진입로 (아리수로) ,11,37.562545,127.164482,고덕2동,강동구
1054, 말우물 어린이 공원 ,5,37.560028,127.169677,고덕2동,강동구
1056, 강일리버파크 7~11단지 ,10,37.563354,127.179054,강일동,강동구
1057, 능골근린공원 ,15,37.555809,127.173744,상일2동,강동구
1058, 고덕숲 아이파크 1 ,12,37.553482,127.165054,상일1동,강동구
1059, 래미안 강동팰리스(102동) ,15,37.538227,127.131744,천호3동,강동구
1060, 천일초교 사거리 ,6,37.54467,127.132675,천호2동,강동구
1061, 천호초교 입구 사거리(일주빌딩) ,8,37.546897,127.134666,천호1동,강동구
1062, 고덕숲 아이파크 2 ,10,37.551078,127.162597,상일1동,강동구
1063, 강동롯데캐슬퍼스트 아파트(관리동) ,10,37.556663,127.142738,암사3동,강동구
1064, 중앙보훈병원역 1번출구 ,10,37.527793,127.147644,둔촌2동,강동구
1065, 보훈병원 후문옆(더 원커피) ,10,37.531208,127.149269,둔촌2동,강동구
1066, 생태공원앞 교차로(조명탑) ,10,37.537765,127.152015,둔촌2동,강동구
1067, 한영중고앞사거리 ,10,37.549034,127.156051,명일2동,강동구
1068, 명일파출소 ,10,37.553649,127.156227,명일2동,강동구
1070, (시립)고덕평생학습관 ,10,37.555702,127.15792,고덕2동,강동구
1072, 고덕역 5번출구 ,22,37.554862,127.153724,명일2동,강동구
1073, SSTS 몰 앞 ,7,37.541145,127.141052,천호3동,강동구
1074, 대명초교입구 사거리 ,15,37.546836,127.149162,명일2동,강동구
1075, 천동초교 삼거리 ,10,37.541362,127.137184,천호3동,강동구
1076, 천동초교입구사거리 버스정류장(십자성마을 방면) ,10,37.539894,127.141036,길동,강동구
1077, 강동역 1번출구 앞 ,15,37.53627,127.132469,천호3동,강동구
1078, 둔촌사거리 ,25,37.521976,127.133621,성내3동,강동구
1079, 강일동입구교차로 ,10,37.561843,127.170845,강일동,강동구
1080, 엘웨딩 ,10,37.53683,127.128417,성내2동,강동구
1081, 트레빌빌딩 ,20,37.536998,127.129531,천호3동,강동구
1082, 중앙보훈병원역3번출구 ,10,37.52956,127.149009,둔촌2동,강동구
1083, 광문고교사거리(아이파크) ,15,37.560367,127.156593,고덕1동,강동구
1084, 윤선생빌딩(JYP사옥) ,20,37.523929,127.129127,성내3동,강동구
1085, 래미안 솔베뉴(고덕로) ,20,37.554569,127.145874,명일1동,강동구
1086, 래미안 솔베뉴(구천면로) ,10,37.550598,127.145454,명일1동,강동구
1088, 풍납사거리(강동) ,12,37.528121,127.119522,성내1동,강동구
1089, 고덕 래미안힐스테이트(201동) ,10,37.5606,127.146698,고덕1동,강동구
1090, 상일동역 2번출구 앞 ,17,37.556789,127.166145,고덕2동,강동구
1101, 상사마을 버스정류장(아라대교방면) ,10,37.581611,126.798599,방화2동,강서구
1102, 방화사거리 마을버스 버스정류장 ,10,37.573642,126.811805,방화1동,강서구
1103, 방화역 4번출구앞 ,10,37.577106,126.811996,방화3동,강서구
1105, 방화근린공원 ,10,37.581623,126.812652,방화3동,강서구
1106, 신방화사거리 ,10,37.572563,126.816421,방화1동,강서구
1108, 공항시장역 2번출구 뒤 ,8,37.563873,126.810607,방화2동,강서구
1109, 공항시장역 4번출구 ,6,37.563346,126.810485,공항동,강서구
1110, 공항중학교앞 ,15,37.562202,126.816246,공항동,강서구
1111, 마곡엠밸리6_7단지 마곡중학교 ,20,37.566982,126.8218,방화1동,강서구
1112, 마곡엠밸리4단지 정문 ,15,37.568576,126.824775,가양1동,강서구
1113, 서남환경공원 버스정류장 ,15,37.573123,126.822387,가양1동,강서구
1117, 등촌5단지아파트 버스정류장 ,10,37.558197,126.844261,등촌3동,강서구
1118, 증미역 3번출구뒤(등촌두산위브센티움오피스텔) ,10,37.55746,126.861457,등촌1동,강서구
1119, 염창동 한마음아파트 앞 ,6,37.554252,126.867561,염창동,강서구
1120, 대림경동아파트앞 ,25,37.564785,126.854644,가양2동,강서구
1121, 가양레포츠센터 앞 ,15,37.559478,126.864379,가양3동,강서구
1122, 황금내근린공원 ,17,37.561923,126.864166,가양3동,강서구
1124, 발산역 6번 출구 뒤 ,6,37.558177,126.838455,우장산동,강서구
1125, 명덕고교입구(영종빌딩) ,18,37.552913,126.83657,발산1동,강서구
1126, 우장산역 1번출구옆(우장산아이파크105동앞) ,7,37.548908,126.836563,우장산동,강서구
1127, 화곡역 버스정류장 ,10,37.540981,126.838546,화곡1동,강서구
1128, 화곡역 6번출구 ,10,37.541412,126.840225,화곡1동,강서구
1129, 화곡역 1번 출구 앞 ,7,37.542099,126.840217,우장산동,강서구
1130, 화곡본동시장 버스정류장 ,7,37.542751,126.84262,화곡본동,강서구
1132, 등촌역 7번출구 ,10,37.551109,126.863708,등촌2동,강서구
1135, 강서구의회 ,16,37.546531,126.862548,등촌2동,강서구
1136, 등촌2파출소 ,8,37.544788,126.861999,등촌2동,강서구
1137, 등촌2동주민센터 ,10,37.541263,126.863372,등촌2동,강서구
1139, 용문사 버스정류장 ,8,37.53852,126.863433,등촌2동,강서구
1140, 목동사거리 버스정류장 ,17,37.531398,126.863609,화곡4동,강서구
1141, 곰달래 문화복지센터 A ,20,37.52906,126.84848,화곡8동,강서구
1145, 곰달래 문화복지센터 B ,10,37.528919,126.848083,화곡1동,강서구
1148, 볏골공원 ,10,37.541469,126.844779,화곡본동,강서구
1149, 신방화역환승주차장 ,13,37.567283,126.818275,방화1동,강서구
1150, 송정역 1번출구 ,7,37.561531,126.810699,공항동,강서구
1151, 마곡역1번출구 ,25,37.560207,126.824142,가양1동,강서구
1152, 마곡역교차로 ,30,37.558311,126.826522,발산1동,강서구
1153," 발산역 1번, 9번 인근 대여소 ",32,37.558948,126.837173,가양1동,강서구
1155, 기쁜우리복지관 ,10,37.569259,126.848419,가양2동,강서구
1157, 강서구청 ,8,37.550659,126.849769,화곡6동,강서구
1158, 가양역 8번출구 ,20,37.561035,126.854812,등촌3동,강서구
1159, 서서울모터리움 앞 ,20,37.565853,126.846595,가양1동,강서구
1160, 양천향교역 7번출구앞 ,20,37.56768,126.840896,가양1동,강서구
1161, 강서면허시험장 앞 ,10,37.549694,126.819664,발산1동,강서구
1162, 공항초등학교건너편 ,10,37.562679,126.820472,방화1동,강서구
1163, 방화동강서기동대앞 ,10,37.570499,126.820083,방화1동,강서구
1165, 마곡중학교 후문 ,20,37.568447,126.821647,방화1동,강서구
1166, 강서구립등빛도서관 ,10,37.562568,126.84246,등촌3동,강서구
1167, 마곡수명산파크3단지 교차로 ,15,37.553508,126.825866,발산1동,강서구
1168, 마곡엠밸리10단지 앞 ,14,37.560291,126.818756,공항동,강서구
1169, 염창역 1번 출구 ,8,37.547199,126.874488,염창동,강서구
1170, 강서구보건소 ,11,37.549179,126.868797,염창동,강서구
1171, 염창동 새마을금고 건너편 ,8,37.550048,126.873161,염창동,강서구
1172, 가양3동 주민센터 ,8,37.561248,126.86058,가양3동,강서구
1173, 강서구청사거리(SH타워) ,15,37.556735,126.853073,등촌1동,강서구
1174, 강서구청사거리(부민병원) ,9,37.556613,126.851165,등촌3동,강서구
1177, 수명중?고교 ,15,37.550109,126.823677,발산1동,강서구
1178, 개화산역 2번 출구 ,10,37.572471,126.806167,방화2동,강서구
1180, 마곡엠밸리 15단지(1502동) 건너편 ,15,37.557468,126.829719,발산1동,강서구
1181, 농수산식품공사 (강서지사) ,10,37.551044,126.818496,발산1동,강서구
1182, KBS 스포츠월드 ,20,37.556877,126.848808,화곡6동,강서구
1183, KC 대학교 ,10,37.54832,126.853401,화곡6동,강서구
1184, 마곡13단지 ,26,37.556449,126.815979,공항동,강서구
1185, 등촌9단지 ,20,37.5629,126.849472,등촌3동,강서구
1186, 송정중학교 ,15,37.554729,126.816093,공항동,강서구
1187, 강서수산물도매시장 ,15,37.55302,126.818367,발산1동,강서구
1188, 롯데중앙연구소 ,8,37.57138,126.828338,가양1동,강서구
1190, 마곡역 교차로(2번출구) ,14,37.560501,126.826652,가양1동,강서구
1191," 마곡역 버스정류장(마곡나루역1번출구, 웰튼병원 방면) ",13,37.560241,126.827163,가양1동,강서구
1192, 마곡수명산파크 209동 건너편 ,20,37.55545,126.826896,발산1동,강서구
1193, 마곡센트럴타워 1차 ,51,37.559471,126.832077,가양1동,강서구
1195, 코오롱One&Only타워 ,24,37.564128,126.834312,가양1동,강서구
1196, 서울식물원(문화센터) 건너편 ,11,37.568241,126.83583,가양1동,강서구
1197, 엠펠리체 호텔 건너편 ,20,37.560241,126.835807,가양1동,강서구
1198, LG 사이언스파크 ,31,37.562549,126.827438,가양1동,강서구
1199, 우장산역 3번출구 ,13,37.547821,126.836128,화곡3동,강서구
1200, 개화광역환승센터 ,10,37.578449,126.798973,방화2동,강서구
1201, 가락시장역 3번 출구 ,15,37.493179,127.118545,가락본동,송파구
1203, 밀리아나2빌딩 앞 ,20,37.493728,127.12062,가락본동,송파구
1204, 거여역 3번출구 ,10,37.493343,127.144729,거여2동,송파구
1205, 종합운동장역 4번출구 ,15,37.510429,127.071372,잠실7동,송파구
1206, 9호선종합운동장역 9번출구 ,20,37.51128,127.078239,잠실7동,송파구
1207, 마천중앙시장 ,10,37.499755,127.152503,마천2동,송파구
1208, 풍납현대아파트쉼터 ,25,37.529747,127.119964,풍납2동,송파구
1209, 잠실나루역 (2번 출구 쪽) ,20,37.52045,127.104202,잠실4동,송파구
1210, 롯데월드타워(잠실역2번출구 쪽) ,30,37.513126,127.100959,잠실6동,송파구
1212, 송파역 2번 출구앞 ,10,37.499412,127.112869,송파2동,송파구
1213, 백토공원 앞 ,12,37.508319,127.133216,오금동,송파구
1214, 오금역 7번 출구 인근 ,10,37.502593,127.127647,오금동,송파구
1215, 올림픽공원역 1번출구 앞 ,15,37.516571,127.131538,오륜동,송파구
1217, 송파파인타운 7단지 ,15,37.479305,127.129798,장지동,송파구
1218, 방이역 4번출구 ,12,37.508968,127.125839,방이1동,송파구
1220, 잠실근린공원 ,15,37.505691,127.084037,잠실본동,송파구
1221, 삼전역 4번출구 ,9,37.504199,127.087532,잠실본동,송파구
1222, 잠실새내역 5번 출구 뒤 ,23,37.511981,127.085052,잠실2동,송파구
1224, 아시아지하보도 2번 출구 ,15,37.512168,127.078933,잠실2동,송파구
1226, 잠실4동 주민센터 옆 ,10,37.520076,127.112365,잠실4동,송파구
1227, 거여역 8번출구 뒤 ,10,37.493125,127.143821,거여1동,송파구
1228, 마천사거리  ,10,37.497699,127.146202,거여1동,송파구
1229, 송파체육문화회관 앞 ,15,37.490688,127.143127,거여1동,송파구
1230, 송파중학교 정문 ,10,37.49567,127.130592,가락2동,송파구
1231, 잠실역 6번출구 ,13,37.514087,127.099029,잠실3동,송파구
1232, 잠실주공 521동 건너편 ,10,37.51184,127.095687,잠실3동,송파구
1233, 잠실3거리(갤러리아팰리스) ,9,37.510509,127.093368,잠실3동,송파구
1235, 잠실트리지움310동 옆 ,14,37.508872,127.087165,잠실3동,송파구
1239, 문정 법조단지3 ,13,37.480842,127.118011,문정2동,송파구
1240, 문정 법조단지4 ,10,37.480575,127.118568,문정2동,송파구
1241, 문정 법조단지5 ,10,37.481239,127.119796,문정2동,송파구
1242, 문정 법조단지6 ,10,37.481632,127.119163,문정2동,송파구
1243, 문정 법조단지7 ,29,37.484531,127.120162,문정2동,송파구
1244, 문정 법조단지8 ,11,37.481536,127.122123,문정2동,송파구
1245, 문정 법조단지9 ,10,37.479465,127.125328,문정2동,송파구
1246, 문정 법조단지10 ,30,37.477508,127.126327,문정2동,송파구
1247, 문정 법조단지11 ,15,37.47882,127.123512,문정2동,송파구
1248, 방이초등학교 ,25,37.513961,127.121673,방이1동,송파구
1250, 문정2동 주민센터 ,10,37.489871,127.110839,문정2동,송파구
1251, 석촌역 2번출구 ,10,37.505931,127.107749,송파1동,송파구
1253, 오금역 3번 출구 뒤 ,10,37.501651,127.128181,가락2동,송파구
1256, 문정현대아파트 교차로 ,8,37.49113,127.125808,문정1동,송파구
1257, 가락시장역 사거리 ,20,37.492099,127.117752,가락1동,송파구
1258, 가락미륭아파트 앞 ,10,37.493198,127.128997,가락2동,송파구
1259, 방이역 1번출구 ,20,37.508983,127.126594,오금동,송파구
1260, 방이동 한양3차아파트 옆 ,8,37.506301,127.121398,방이1동,송파구
1262, 송파여성문화회관 앞 ,10,37.505802,127.109718,송파1동,송파구
1263, 장지공영차고지 ,10,37.480541,127.137016,장지동,송파구
1264, 천호역 10번 출구 앞 ,8,37.538581,127.122802,풍납1동,송파구
1265, 문정동 근린공원 ,10,37.485988,127.124763,문정1동,송파구
1266, 문정동 글샘 공원 ,10,37.478809,127.120002,문정2동,송파구
1267, 올림픽공원 남2문 앞 ,14,37.51424,127.123069,오륜동,송파구
1268, 몽촌토성역 1번출구 옆 ,15,37.517288,127.114196,오륜동,송파구
1269, 리센츠아파트  ,10,37.511943,127.091217,잠실2동,송파구
1271, 송파도서관 ,15,37.499984,127.135391,오금동,송파구
1274, 영파여고 앞 ,20,37.532848,127.121047,풍납2동,송파구
1275, 거여초등학교 옆 ,15,37.504589,127.139366,오금동,송파구
1277, 성내7교 ,15,37.505626,127.136421,오금동,송파구
1278, 송파구청 교차로 ,16,37.515796,127.106819,잠실4동,송파구
1279, 마천금호어울림 1차아파트 건너편 ,10,37.497516,127.154678,마천1동,송파구
1280, 송파파크데일 2단지입구 앞 주차장 ,13,37.495658,127.157173,마천1동,송파구
1282, 송파소방서 맞은편(성내4교) ,10,37.499874,127.141479,오금동,송파구
1283, 오금공원 사거리 ,8,37.505413,127.13169,오금동,송파구
1285, 위례별 유치원 뒤 ,10,37.47747,127.144592,위례동,송파구
1286, 위례중앙푸르지오 1단지 앞 ,10,37.474376,127.14067,위례동,송파구
1287, 위례아이파크 101동 맞은편 ,8,37.477466,127.14151,위례동,송파구
1288, 문정중교 사거리 ,15,37.487998,127.131088,장지동,송파구
1289, 풍납토성 서성벽터B ,10,37.531471,127.111091,풍납2동,송파구
1290, 위례송파꿈에그린아파트24단지 앞 성벽 다리 밑 ,10,37.474582,127.137542,위례동,송파구
1291, 서울체육고등학교 앞 ,10,37.521938,127.131866,오륜동,송파구
1293, 석촌호수 서호 사거리 ,14,37.506561,127.096557,삼전동,송파구
1295, 잠실역 8번출구 ,8,37.513961,127.100303,잠실6동,송파구
1296, 석촌호수교차로 (송파나루근린공원 앞) ,10,37.508678,127.103431,잠실3동,송파구
1297, 석촌호수교차로(동호 팔각정 앞) ,15,37.509201,127.104118,잠실6동,송파구
1299, 송파소방서 (방이119안전센터) ,15,37.519878,127.136711,오륜동,송파구
1300, 오륜사거리 ,15,37.506938,127.139221,오륜동,송파구
1302, 한성대입구역6번출구 뒤 ,5,37.588764,127.006309,성북동,성북구
1303, 돈암초교 입구 ,10,37.591693,127.012496,성북동,성북구
1304, 만해공원 ,10,37.594402,126.992309,성북동,성북구
1305, 성북구청 ,15,37.589328,127.016433,삼선동,성북구
1306, 한성대입구역2번출구 ,10,37.588447,127.006706,삼선동,성북구
1308, 안암로터리 버스정류장 앞 ,16,37.582592,127.028976,안암동,성북구
1314, 정릉꿈에그린1단지 201동 앞 ,8,37.602439,127.011688,정릉2동,성북구
1315, 고려사대부속중고 정문 ,10,37.607761,127.00328,정릉3동,성북구
1316, 고려사대부속중고 건너편  ,10,37.607261,127.002838,정릉3동,성북구
1318, 길음역 3번출구 뒤 ,14,37.603084,127.024787,길음1동,성북구
1319, 종암사거리 분수대 ,10,37.603042,127.033271,종암동,성북구
1321, 국민은행 종암동지점 앞 ,14,37.593288,127.036666,종암동,성북구
1322, 래미안라센트아파트 103동 앞 ,10,37.598068,127.039276,종암동,성북구
1323, 월곡역 입구 육교 밑 ,10,37.600433,127.040206,종암동,성북구
1325, 상월곡역 4번출구 ,10,37.605808,127.047737,월곡2동,성북구
1326, 상월곡역 1번출구 ,10,37.606067,127.047317,월곡2동,성북구
1328, 월곡역 3번출구 ,10,37.602626,127.041633,월곡2동,성북구
1332, 석계역 5번출구 건너편 ,10,37.613555,127.066093,석관동,성북구
1333, 석관초등학교 앞 ,20,37.610523,127.059799,석관동,성북구
1334, 석관동주민센터 앞 ,10,37.612998,127.061309,석관동,성북구
1336, 성북3교 위 ,30,37.591251,127.014007,삼선동,성북구
1337, 돈암성당 옆 ,13,37.590381,127.017135,동선동,성북구
1338, 용문2교 옆 ,15,37.586898,127.020751,안암동,성북구
1339, 삼성전자서비스 성북센터 ,9,37.610569,127.033508,월곡1동,성북구
1340, 광운초등학교 앞 ,11,37.617843,127.055,장위3동,성북구
1342, 성북쉼터 앞 ,10,37.592617,126.997932,성북동,성북구
1343, 한성대7번출구 앞 ,8,37.589248,127.007377,성북동,성북구
1344, 아리랑시네센터 앞 ,10,37.600288,127.013702,돈암2동,성북구
1346, 길음8골어린이공원 옆 ,15,37.608978,127.020248,길음1동,성북구
1347, 길음래미안아파트817동 상가 앞 ,10,37.607105,127.021499,길음1동,성북구
1348, 성북제일새마을금고 본점 앞 ,12,37.604751,127.022758,길음1동,성북구
1349, 월계2교 버스정류장 앞 ,10,37.623828,127.050201,장위3동,성북구
1351, 안암2교 옆 ,8,37.579448,127.024192,안암동,성북구
1352, e 편한세상 보문아파트 내 ,8,37.583881,127.017097,보문동,성북구
1353, 금호어울림센터힐 내 ,8,37.60083,127.023551,돈암1동,성북구
1354, 고려대학교 2번출구 ,22,37.590713,127.036193,안암동,성북구
1355, 보문2교 ,25,37.588699,127.018913,안암동,성북구
1357, 북한산보국문역 ,10,37.612071,127.008132,정릉4동,성북구
1358, 정릉도서관 앞 ,7,37.604789,127.010581,정릉2동,성북구
1360, 정릉역 ,10,37.603096,127.013504,정릉1동,성북구
1361, 홍익중고 입구 ,20,37.592967,127.002235,성북동,성북구
1362, 보문역6번출구 앞 ,12,37.585197,127.019668,보문동,성북구
1363, 보문4교 인근 ,25,37.583751,127.021949,안암동,성북구
1364, 성북동 치안센터 앞 ,10,37.590171,127.004089,성북동,성북구
1365, 선잠단지 앞 ,10,37.59336,126.999092,성북동,성북구
1366, 일신초등학교 옆 ,10,37.59972,127.040382,종암동,성북구
1367, 길음문화복합미디어센터 ,10,37.604297,127.022613,길음1동,성북구
1368, 성신여대입구 교차로 ,10,37.591396,127.020156,동선동,성북구
1370, 복자사랑 피정의 집 ,10,37.594539,126.995208,성북동,성북구
1372, KEB은행 고대점 ,20,37.586444,127.0316,안암동,성북구
1373, 성북구보건소 건너편 ,8,37.602355,127.039077,월곡2동,성북구
1375, 생명의 전화 종합복지관 앞 교차로 ,20,37.603908,127.037376,월곡1동,성북구
1376, 한국과학기술연구원 중문 ,7,37.597309,127.043785,월곡2동,성북구
1377, 한국과학기술연구원 북문 ,10,37.604187,127.045494,월곡2동,성북구
1381, 석계역 4번출구 뒤 ,18,37.614784,127.067001,석관동,성북구
1382, 래미안월곡아파트 입구 ,10,37.608665,127.03627,월곡1동,성북구
1384, 성신여대입구역 5번출구 ,13,37.592826,127.016288,동선동,성북구
1385, 성신여대입구역 3번출구 앞 ,10,37.592365,127.016288,삼선동,성북구
1386, 동선고가차도 초입 ,10,37.594158,127.018966,동선동,성북구
1388, 돈암초교입구 버스정류장(한성대입구역 방면) ,10,37.590881,127.011703,삼선동,성북구
1390, 석관래미안아트리치 ,10,37.60646,127.061622,석관동,성북구
1391, 성북청소년센터 ,10,37.616882,127.056068,장위3동,성북구
1392, 돈암삼성풍림아파트 ,10,37.597099,127.022628,돈암1동,성북구
1393, 돈암육교 하단 ,10,37.598182,127.021179,돈암1동,성북구
1394, 길음뉴타운 래미안9단지 ,10,37.602424,127.019981,정릉1동,성북구
1395, 래미안장위포레카운티(102동) ,20,37.618179,127.051834,장위3동,성북구
1396, 래미안장위퍼스트하이(513동) ,30,37.618442,127.051452,장위3동,성북구
1401, 극동늘푸른아파트 ,15,37.614738,127.076362,묵2동,중랑구
1402, 금란주차장 앞 ,10,37.60007,127.102333,망우본동,중랑구
1403, 중화빌딩 앞 (동부시장) ,15,37.594249,127.076576,중화2동,중랑구
1404, 동일로 지하차도 ,10,37.595298,127.080032,중화2동,중랑구
1405, 망우역 1번출구 ,10,37.599098,127.092948,상봉1동,중랑구
1407, 먹골역 1번출구 뒤 ,10,37.611511,127.077888,묵1동,중랑구
1408, 먹골역 6번출구 앞 ,10,37.610721,127.077476,묵2동,중랑구
1410, 면목 대원칸타빌아파트 ,10,37.577781,127.090187,면목7동,중랑구
1411, 상봉시장앞 교차로 한성빌딩 앞 ,10,37.59254,127.086738,면목본동,중랑구
1414, 사가정역 2번출구 ,10,37.580989,127.088241,면목3·8동,중랑구
1416, 상봉역 3번출구 ,8,37.595218,127.085998,상봉2동,중랑구
1418, 새솔초등학교 ,10,37.617439,127.109016,신내1동,중랑구
1420, 신내어울공원 앞 ,15,37.613945,127.097702,신내1동,중랑구
1421, 신내역 4번출구 ,13,37.612461,127.103378,망우본동,중랑구
1422, 신내우디안아파트 1단지 ,10,37.620098,127.10646,신내1동,중랑구
1424, 양원역 2번출구 ,10,37.606311,127.107742,망우본동,중랑구
1425, 신성미소지움아파트 ,10,37.587459,127.09597,면목3·8동,중랑구
1426, 면목도시개발아파트 1동 앞 ,10,37.573589,127.086822,면목4동,중랑구
1427, 용마산역 1번출구 ,10,37.574298,127.086914,면목4동,중랑구
1428, 원묵고등학교 ,10,37.616024,127.085968,묵1동,중랑구
1429, 장안중학교 ,15,37.599956,127.080001,중화1동,중랑구
1430, 중랑구청 ,20,37.606151,127.092597,신내2동,중랑구
1431, 중랑구청 사거리 ,10,37.606498,127.095451,신내1동,중랑구
1433, 중화역 2번출구 ,10,37.602077,127.079582,중화1동,중랑구
1435, 능산삼거리 ,10,37.60868,127.100791,신내1동,중랑구
1436, 동원베네스트 건물 앞 ,15,37.6081,127.101181,신내1동,중랑구
1437, 늘푸른공원 앞 ,15,37.583419,127.079925,면목5동,중랑구
1438, 홈플러스 신내점 앞 ,15,37.616168,127.093482,신내2동,중랑구
1440, 면목2동 사거리 ,10,37.586372,127.08007,면목5동,중랑구
1441, 신내능말공원 ,10,37.616706,127.11026,신내1동,중랑구
1442, 중랑구청 중화동 별관 앞 ,8,37.59859,127.079818,중화2동,중랑구
1444, 면목4치안센터 ,10,37.574028,127.080543,면목4동,중랑구
1445, 용마지구대 A ,10,37.57994,127.079399,면목5동,중랑구
1446, 중랑전화국 교차로 ,10,37.5913,127.080329,면목2동,중랑구
1447, 면목역 3번출구 ,15,37.588901,127.08728,면목본동,중랑구
1448, 코스트코 상봉점 ,15,37.59732,127.089797,상봉2동,중랑구
1449, 상봉역 1번출구 ,15,37.596557,127.085838,상봉2동,중랑구
1450, 화랑대역 7번출구 ,10,37.619636,127.085044,묵1동,중랑구
1451, 중랑세무서 ,10,37.592758,127.072669,상봉2동,중랑구
1452, 겸재교 진입부 ,25,37.585655,127.07505,면목2동,중랑구
1453, 중랑캠핑숲 ,9,37.604602,127.109252,망우본동,중랑구
1454, 한국전력공사(동대문 중랑지사) ,10,37.607349,127.07859,묵1동,중랑구
1455, 상봉역 2번 출구 ,10,37.596328,127.085899,상봉2동,중랑구
1456, 상아빌딩(우림시장 교차로) ,10,37.595111,127.100326,망우3동,중랑구
1457, 동원사거리 ,10,37.589759,127.093238,면목본동,중랑구
1458, 상봉터미널2 ,9,37.597339,127.093086,망우본동,중랑구
1459, 용마한신아파트사거리 ,10,37.580348,127.092651,면목7동,중랑구
1461, 동양엔파트 앞 ,12,37.593853,127.075073,중화2동,중랑구
1462, 동부시장 북문 앞 ,9,37.593868,127.076522,상봉2동,중랑구
1463, 중랑구민회관 ,10,37.574077,127.085006,면목4동,중랑구
1464, 중화역 4번출구 ,15,37.603054,127.079002,중화2동,중랑구
1466, 두산대림아파트 삼거리 ,10,37.618824,127.08757,묵1동,중랑구
1467, sk신내 주유소앞(용마산로) ,10,37.61362,127.10115,신내1동,중랑구
1468, 먹골역 7번 출구 ,6,37.611476,127.077392,묵2동,중랑구
1469, 먹골역 4번출구 ,20,37.609821,127.078132,묵1동,중랑구
1470, 중화동 우리은행 앞 ,20,37.605201,127.078582,중화2동,중랑구
1471, 동양쇼핑 정류소 앞 ,10,37.615352,127.078491,묵1동,중랑구
1472, 영성빌딩(PAT) ,8,37.604084,127.079231,중화1동,중랑구
1473, 중랑역 1번 출구(중화문화복지센터) ,10,37.59489,127.074951,중화2동,중랑구
1477, 면목삼익아파트 앞 ,10,37.575984,127.079605,면목4동,중랑구
1478, 홈플러스 상봉점 앞 ,15,37.598327,127.092269,상봉1동,중랑구
1479, 면목 홈플러스 2  ,10,37.581054,127.082092,면목5동,중랑구
1480, 용마지구대 B ,15,37.581111,127.080101,면목5동,중랑구
1501," 미아역 3번,4번 출구 사이 ",9,37.626079,127.026481,미아동,강북구
1503, 강북구청사거리(수유역 8번출구) ,14,37.639263,127.026725,수유3동,강북구
1504, 삼양시장오거리 ,10,37.624156,127.018623,송천동,강북구
1506, 강북문화예술회관 ,15,37.640327,127.013359,인수동,강북구
1509, 서울북부수도사업소 ,10,37.634376,127.035751,번2동,강북구
1510, 번동주공5단지 관리사무소 앞 ,10,37.633716,127.035514,번2동,강북구
1511, 번동 금호어울림아파트102동앞 ,9,37.631122,127.036033,번2동,강북구
1512, 강북중학교 앞 ,20,37.644737,127.026565,수유3동,강북구
1513, 강북구청 뒷편 ,20,37.639671,127.025199,수유3동,강북구
1514, 강북구청 사거리 버스정류소 앞 ,10,37.638805,127.028358,번1동,강북구
1515, 송천동 주민센터 ,10,37.618286,127.024047,송천동,강북구
1516, 우이초등학교 후문 옆 ,10,37.638587,127.015907,인수동,강북구
1518, 수유2동은행빌딩 앞 ,10,37.643085,127.016166,인수동,강북구
1519, 장미원시장 건너편 ,10,37.64545,127.015617,수유2동,강북구
1520, 수유중앙시장 ,7,37.639862,127.022789,수유3동,강북구
1525, 미아동 복합청사 ,10,37.62714,127.026695,미아동,강북구
1526, 강북종합시장 앞 ,8,37.641738,127.024627,수유3동,강북구
1527, 미아역 1번 출구 뒤 ,10,37.627334,127.026054,미아동,강북구
1528, 삼각산동 주민센터 ,10,37.615036,127.020698,삼각산동,강북구
1529, 미아동 한국전력공사 ,15,37.63018,127.024909,미아동,강북구
1530, 광산사거리 ,13,37.64355,127.022346,수유2동,강북구
1531, 미아사거리 1번 출구 ,10,37.613956,127.03025,송중동,강북구
1532, 번3동 주민센터 교차로 ,10,37.626354,127.047447,번3동,강북구
1533," 번동 주공3, 4단지 교차로 ",10,37.629917,127.040916,번3동,강북구
1535, 효성인텔리안 앞 ,10,37.636291,127.023376,수유3동,강북구
1536, 번동 두산위브 101동 옆 ,20,37.63626,127.032173,번1동,강북구
1537, 북한산 우이역 ,10,37.663665,127.012428,우이동,강북구
1538, 솔밭공원역 ,8,37.656158,127.013137,우이동,강북구
1539, 4.19민주묘지역 ,10,37.649673,127.01345,우이동,강북구
1540, 가오리역 ,8,37.64167,127.016883,수유2동,강북구
1541, 삼양역 ,10,37.626529,127.018058,삼양동,강북구
1542, 삼양사거리역 ,10,37.621551,127.02037,삼양동,강북구
1543, 수유1동 주민센터 ,10,37.630187,127.017738,수유1동,강북구
1546, 송천동우체국 ,10,37.615459,127.029701,송천동,강북구
1547, 꿈의숲 롯데캐슬 ,10,37.617752,127.035705,송중동,강북구
1548, 북서울 꿈의숲 서문 ,15,37.622688,127.037811,번3동,강북구
1550, 삼각산아이원아파트(105동 옆) ,10,37.615222,127.018508,삼각산동,강북구
1551, 4.19탑 앞 ,8,37.646862,127.008811,우이동,강북구
1552, 강북구청사거리 ,8,37.639202,127.027236,번1동,강북구
1553, 서울북부고용노동지청 ,15,37.635204,127.033966,번1동,강북구
1554, 번동사거리 ,10,37.635391,127.034553,번1동,강북구
1558, 강북문화정보도서관 ,10,37.625526,127.037323,번3동,강북구
1560, 도봉세무서 앞 ,10,37.619808,127.028526,송천동,강북구
1564, 4.19민주묘지역 1번출구 ,7,37.649597,127.013847,우이동,강북구
1565, 수유사거리 ,15,37.635612,127.022995,인수동,강북구
1568, 4.19민주묘지 입구사거리 ,10,37.647933,127.014572,수유2동,강북구
1569, 수유역2번출구 ,10,37.637969,127.025901,번1동,강북구
1571, 북서울 꿈의 숲 입구 ,10,37.626731,127.038772,번3동,강북구
1572, 우이동 먹거리마을 ,10,37.664463,127.01184,우이동,강북구
1573, 현대성우아파트 옆 ,10,37.616664,127.022109,송천동,강북구
1574, 송중초등학교 옆 ,8,37.616699,127.030494,송중동,강북구
1601, 석계역 문화광장 내 자전거 보관소 ,10,37.61518,127.064643,월계1동,노원구
1602, 광운대역 앞 ,13,37.622661,127.061897,월계1동,노원구
1605, 헬스케어 ,10,37.631622,127.061614,월계3동,노원구
1606, 태릉입구역 3번출구  ,10,37.619171,127.074928,공릉1동,노원구
1608, 공릉역 1번 출구 앞 ,10,37.626613,127.072753,공릉1동,노원구
1610, 화랑대역 2번출구 앞 ,20,37.620368,127.083641,공릉2동,노원구
1611, 과기대 입구(우) ,20,37.62994,127.076553,공릉2동,노원구
1616, 하계2동 공항버스정류장 옆 ,10,37.635108,127.068328,하계2동,노원구
1619, 중계동 하나프라자빌딩 앞(중1-1) ,10,37.649021,127.076408,중계1동,노원구
1620, 중계동 노원구민체육센터 옆(중1-2) ,10,37.648208,127.07022,중계1동,노원구
1625, 상계역 3번출구 ,20,37.659999,127.072967,상계5동,노원구
1627, 수락산역 4번출구 ,12,37.67694,127.055099,상계1동,노원구
1628, 노일초등학교 앞 ,5,37.673618,127.055252,상계1동,노원구
1630, 수연빌딩 앞 ,10,37.67625,127.055503,상계1동,노원구
1634, 당고개공원 대여소 ,15,37.66846,127.077148,상계3·4동,노원구
1635," 상계3,4동 주민센터 대여소 ",6,37.67271,127.08316,상계3·4동,노원구
1636, 상계주공2단지 버스정류장 옆 ,10,37.649211,127.061767,상계6·7동,노원구
1637, KT 전화국 버스정류장 옆 ,9,37.654701,127.0634,상계6·7동,노원구
1639, 희성오피앙 ,10,37.680313,127.055068,상계1동,노원구
1640, 한내근린공원 북측 ,9,37.623863,127.068489,월계3동,노원구
1641, 한내근린공원 남측 ,15,37.621555,127.069511,월계3동,노원구
1642, 서울여대 남문 ,7,37.625316,127.088134,공릉2동,노원구
1643, 태릉입구역 8번출구 ,10,37.617366,127.07521,공릉1동,노원구
1646, 삼육대 입구 ,10,37.638488,127.107902,공릉2동,노원구
1650, 중계근린공원내 ,25,37.639579,127.065101,중계2·3동,노원구
1651, 상계동 우방유쉘아파트 앞 ,20,37.672374,127.055992,상계1동,노원구
1652, 파르코 앞 ,10,37.68,127.05558,상계1동,노원구
1653, 노원역1번출구 ,10,37.6562,127.063621,상계2동,노원구
1654, 당고개입구 오거리 ,15,37.663791,127.075447,상계3·4동,노원구
1655, 공릉1단지아파트 ,15,37.631111,127.070159,공릉1동,노원구
1657, 노원구청  ,20,37.654048,127.057327,상계6·7동,노원구
1659, 중계동 을지중학교 ,10,37.650329,127.071601,중계1동,노원구
1660, 서울시립과학관 ,8,37.64207,127.076622,하계1동,노원구
1661, 당현천근린공원 ,10,37.649639,127.065605,상계6·7동,노원구
1662, 노원역7번출구 ,20,37.654216,127.059211,상계6·7동,노원구
1663, 동해문화예술관앞 ,25,37.61938,127.057853,월계1동,노원구
1665, 양지근린공원앞 ,10,37.646995,127.0764,중계1동,노원구
1666, 노원소방서인근 ,10,37.65578,127.071777,상계2동,노원구
1667, 중계중학교 ,10,37.654499,127.074386,중계1동,노원구
1668, 중계역 6번출구 ,10,37.645565,127.063346,중계2·3동,노원구
1669, 중계역 3번출구 ,9,37.643527,127.065223,중계2·3동,노원구
1670, 노원경찰서교차로 ,20,37.643409,127.071838,하계1동,노원구
1671, 인덕대학교 ,15,37.629348,127.054824,월계2동,노원구
1674, 서울북부고용센터앞 ,15,37.653549,127.058082,상계6·7동,노원구
1675, 월계문화체육센터 ,9,37.626941,127.05513,월계1동,노원구
1677, 육군사관학교  앞 ,15,37.623165,127.090499,공릉2동,노원구
1678, 성서대학교 밀알관 ,10,37.648437,127.064445,상계6·7동,노원구
1679, 삼육대 도서관 ,10,37.642829,127.106666,공릉2동,노원구
1680, 삼육대 제3과학관 ,7,37.642654,127.108383,공릉2동,노원구
1681, 현대6차 아파트 ,12,37.645801,127.08226,중계본동,노원구
1682, 중계종합사회복지관 교차로 ,13,37.657455,127.075546,중계4동,노원구
1683, 노원문화예술회관 ,5,37.650459,127.080886,중계본동,노원구
1684, 태릉입구역 5번출구 ,20,37.61832,127.07563,공릉1동,노원구
1685, 불암고등학교 앞 횡단보도 ,8,37.648189,127.080482,중계본동,노원구
1686, 상계주공10단지 종합상가 앞 ,15,37.66114,127.058052,상계10동,노원구
1688, 마들역 7번출구 ,9,37.66566,127.057296,상계8동,노원구
1689, 마들역 3번출구 ,10,37.665248,127.057891,상계9동,노원구
1690, 도봉운전면허시험장 버스정류장 옆 ,10,37.65773,127.05931,상계10동,노원구
1691, 노원정보도서관 ,10,37.660709,127.06533,상계10동,노원구
1692, 온곡초교 교차로 ,10,37.664188,127.066009,상계9동,노원구
1693, 원자력 병원 ,10,37.628189,127.082107,공릉2동,노원구
1696, 수락리버시티4단지 ,10,37.68645,127.052833,상계1동,노원구
1697, 상계주공2단지 219동 ,10,37.650249,127.057151,상계6·7동,노원구
1702, 녹천역 1번출구 앞 ,10,37.64582,127.050422,창1동,도봉구
1703, 도봉산광역환승센터앞  ,10,37.68972,127.045196,도봉1동,도봉구
1705, 도봉구청 정문앞 ,8,37.669223,127.046516,방학1동,도봉구
1706, 방학동우체국 건너편 ,10,37.665664,127.042671,방학1동,도봉구
1707, 도봉구민회관 ,20,37.65446,127.038513,창5동,도봉구
1708, 도봉보건소사거리 ,7,37.656829,127.039848,창5동,도봉구
1709, 쌍문역4번출구 주변 ,17,37.650127,127.035346,쌍문3동,도봉구
1713, 쌍문동 이안아파트 앞 ,10,37.651653,127.028488,쌍문4동,도봉구
1714, 도봉문화정보도서관 삼거리 ,10,37.64463,127.044609,창1동,도봉구
1715, 서울특별시교육청도봉도서관 ,20,37.653179,127.012786,쌍문1동,도봉구
1716, 창동역 1번출구 건너편 ,10,37.654201,127.050727,창4동,도봉구
1719, 신도봉사거리 버스정류장 ,10,37.673282,127.043991,도봉1동,도봉구
1720, 도봉구청 옆(중랑천변) ,27,37.66867,127.047981,방학1동,도봉구
1721, 창동역 2번출구  ,12,37.653015,127.046997,창5동,도봉구
1722, 창동청소년수련관 ,15,37.657798,127.050048,창4동,도봉구
1723, 방학동학마을도서관 ,10,37.662078,127.027717,방학3동,도봉구
1725, 창1동주민센터 ,10,37.647502,127.043312,창1동,도봉구
1726, 삼익세라믹아파트교차로 ,8,37.658588,127.035209,쌍문2동,도봉구
1727, 서울도봉초등학교인근 ,15,37.678676,127.040763,도봉1동,도봉구
1728, 서울북부지방법원 ,10,37.677719,127.046813,도봉2동,도봉구
1729, 도봉한신아파트 버스정류장 ,8,37.684009,127.045791,도봉1동,도봉구
1730, 도봉산역 교차로 앞 ,8,37.687591,127.045501,도봉1동,도봉구
1731, 도봉고등학교 맞은편 ,10,37.687629,127.042213,도봉1동,도봉구
1732, 방학역사거리 ,10,37.667598,127.042999,방학1동,도봉구
1733, 방학사거리 (봄마당 앞) ,12,37.662979,127.041938,방학1동,도봉구
1734, 쌍문현대1차아파트 108동 앞 ,10,37.658149,127.032669,쌍문4동,도봉구
1735," 도봉역 1,2번 출구사이 건너편 ",13,37.679119,127.044982,도봉1동,도봉구
1736, 버스정류장 앞 ,12,37.65224,127.037063,창5동,도봉구
1737, 신창시장 ,10,37.639701,127.038833,창2동,도봉구
1738, 창동주공17단지 상가앞 ,10,37.646308,127.052742,창4동,도봉구
1741, 제일강산수산입구 ,20,37.645198,127.032981,창2동,도봉구
1743, 창동19단지아파트 관리사무소앞 ,10,37.65039,127.052192,창4동,도봉구
1744, 도봉소방서 옆 ,15,37.664802,127.043029,방학1동,도봉구
1749, ESA아파트 상가 앞 ,10,37.666271,127.045989,방학1동,도봉구
1750, 창포원 남쪽 입구 ,12,37.688266,127.048896,도봉2동,도봉구
1751, 창원초등학교 교차로 ,15,37.652122,127.041702,창5동,도봉구
1752, 창동 주공 4단지 입구 옆 ,6,37.645481,127.048576,창1동,도봉구
1754, 창동시장입구 사거리 ,11,37.646896,127.033432,쌍문3동,도봉구
1756, 서울북부광역등기국 ,10,37.651485,127.044319,창5동,도봉구
1757, 솔밭공원역 1번출구 앞 ,10,37.655685,127.013381,쌍문1동,도봉구
1758, 솔밭공원역 1번출구 주변 ,10,37.657279,127.013755,쌍문1동,도봉구
1759, 서울북부지방법원 앞 ,10,37.677219,127.048637,도봉2동,도봉구
1761, 방학중학교 앞 ,10,37.665622,127.031089,방학2동,도봉구
1762, 북한산 한신휴플러스APT앞 ,25,37.655338,127.042419,창5동,도봉구
1765, 쌍문역 1번출구 주변 ,13,37.649669,127.035614,창1동,도봉구
1767, 방학초등학교 앞 ,10,37.662509,127.033279,방학2동,도봉구
1768, 신동아타워 버스정류소 ,8,37.662082,127.028747,방학3동,도봉구
1770, 도봉한신아파트 주변 ,15,37.684738,127.050041,도봉2동,도봉구
1771, 성원APT버스정류소 ,15,37.657966,127.03009,쌍문4동,도봉구
1772, 시립도봉노인복지관 버스정류소 ,13,37.65805,127.035758,쌍문2동,도봉구
1774, 정의여중고 버스정류소 ,8,37.651348,127.034729,쌍문2동,도봉구
1775, 신원리베르텔 앞 ,15,37.651287,127.045547,창5동,도봉구
1804, 독산역 2번출구 자전거주차장 ,10,37.466529,126.888717,가산동,금천구
1805, 서울디지털운동장 앞 ,10,37.482288,126.877769,가산동,금천구
1806, 에이스하이엔드타워9차 앞 ,10,37.486213,126.878639,가산동,금천구
1808, 에이스하이엔드타워8차 앞 ,20,37.473209,126.884941,가산동,금천구
1809, LG전자 별관동(호서대 벤처타워 맞은편) ,10,37.470779,126.885154,가산동,금천구
1812, 갑을그레이트밸리 앞 ,10,37.47903,126.887298,가산동,금천구
1814, 두산위브아파트 옆 상가건물 앞 ,8,37.47422,126.894126,가산동,금천구
1819, 금천구청 앞 자전거거치대 ,10,37.456478,126.895927,시흥1동,금천구
1820, 신한은행 시흥대로금융센터지점 ,10,37.44334,126.903358,시흥3동,금천구
1821, 홈플러스 시흥점 맞은편 다비치안경 앞 ,10,37.451457,126.902114,시흥1동,금천구
1822, 서울 시흥동우체국 앞 ,10,37.452991,126.900909,시흥1동,금천구
1823, 상신정비공업 앞 ,10,37.458911,126.89859,시흥1동,금천구
1824, 독산근린공원 입구 ,25,37.46455,126.883728,독산1동,금천구
1825, 한신아파트 앞 육교 아래 ,10,37.4547,126.891052,독산1동,금천구
1826, 한신코아 앞 ,10,37.45684,126.888343,독산1동,금천구
1827, 독산보도육교 앞 자전거 보관소 ,20,37.456726,126.893066,독산1동,금천구
1828, 한양수자인아파트 앞 ,10,37.475318,126.898887,독산3동,금천구
1829, 홈플러스 금천점 앞 ,10,37.469139,126.897201,독산1동,금천구
1830, 빅마켓 금천점 앞 ,19,37.47023,126.895072,독산1동,금천구
1831, 한국전력 구로금천지사 앞 ,10,37.472499,126.897956,독산1동,금천구
1833, 독산역 1번출구 A ,10,37.466541,126.890281,독산1동,금천구
1834, 월드메르디앙 벤처센터 2차 ,10,37.479084,126.879043,가산동,금천구
1835, STX V타워 ,10,37.477069,126.884429,가산동,금천구
1836, 금천구립 독산도서관 ,7,37.467403,126.908142,독산4동,금천구
1839, 수출의 다리 아래 ,20,37.477436,126.886154,가산동,금천구
1840, 솔브레인이엔지 뒤편 ,20,37.475551,126.888458,가산동,금천구
1841, 가산동 주민센터 ,12,37.476951,126.891868,가산동,금천구
1842, 한울중학교 ,12,37.462574,126.90686,시흥4동,금천구
1843, 독산고등학교 ,10,37.477096,126.911132,독산3동,금천구
1845, 롯데캐슬골드파크1차 서문 ,15,37.460289,126.892189,독산1동,금천구
1846, 롯데캐슬골드파크1차 동문 ,15,37.46017,126.896041,독산1동,금천구
1847, 독산주공 14단지 버스정류소 ,10,37.460933,126.887168,독산1동,금천구
1848, 벽산 디지털밸리 5차 ,9,37.476276,126.885391,가산동,금천구
1849, 대륭포스트타워5차 ,10,37.481353,126.88694,가산동,금천구
1850, 코오롱테크노밸리 ,10,37.480159,126.886367,가산동,금천구
1851, 가산디지털단지 9번출구 인근 ,10,37.481231,126.881484,가산동,금천구
1853, 서울디자인직업전문학교 앞 ,10,37.47248,126.895866,독산1동,금천구
1854, 가산아네스트 오피스텔 앞 ,10,37.478179,126.897407,독산1동,금천구
1855, 성지아파트 옆 도로변 ,10,37.45132,126.897621,시흥1동,금천구
1856, 모두의학교 ,10,37.478408,126.907371,독산3동,금천구
1857, 주공14단지 ,10,37.460559,126.887092,독산1동,금천구
1858," 500번,507번 버스 종점 앞 ",10,37.437271,126.902687,시흥3동,금천구
1859, 대륭테크노타운 18차 ,13,37.467998,126.88684,가산동,금천구
1861, IBK기업은행 석수역 지점 앞 ,10,37.436981,126.903297,시흥3동,금천구
1862, 스타즈호텔독산 빌딩 앞 ,20,37.461345,126.897583,독산1동,금천구
1863, 위너스 스포츠클럽 골프연습장옆 ,9,37.460536,126.898605,독산2동,금천구
1864, 산호시티빌 옆 ,15,37.45652,126.899551,시흥1동,금천구
1865, 금천구청앞(M빌딩) ,10,37.456333,126.896453,시흥1동,금천구
1866, 서울안천초등학교 옆 ,10,37.457778,126.889427,독산1동,금천구
1867, 대륭포스트타워6차 앞 ,30,37.480888,126.883804,가산동,금천구
1868, 우리은행 시흥남자동화점 앞 ,10,37.447853,126.902885,시흥1동,금천구
1869, 롯데캐슬골드파크3차 301동 앞 ,15,37.459018,126.896713,독산1동,금천구
1870, 독산3동주민센터 앞 ,8,37.47507,126.903358,독산3동,금천구
1901, 신도림동주민센터 앞 ,10,37.507331,126.87973,신도림동,구로구
1904, 도림천역 1번 출구 앞 ,10,37.51424,126.882873,신도림동,구로구
1906, 신도림역 1번 출구 앞 ,20,37.509719,126.890098,신도림동,구로구
1907, 구일우성(아) 육교 밑 ,12,37.489631,126.876258,구로1동,구로구
1908, 해원리바파크 육교 밑 ,12,37.495285,126.872161,구로1동,구로구
1910, 낙원교회 맞은편 ,5,37.497505,126.884376,구로2동,구로구
1911, 구로디지털단지역 앞 ,18,37.484939,126.901321,구로3동,구로구
1912, 한신휴아파트 앞 ,13,37.4888,126.890663,구로3동,구로구
1914, 대림역4번출구 ,10,37.494403,126.894447,구로4동,구로구
1916, 구로중학교앞 ,10,37.49414,126.889984,구로4동,구로구
1920, 서울미래초등학교 사거리 ,14,37.504379,126.888298,구로5동,구로구
1924, 삼부르네상스파크빌 ,10,37.47874,126.895095,가리봉동,구로구
1925, 동양미래대학교 정문 옆 ,20,37.499889,126.867698,고척1동,구로구
1928, 고척스카이돔구장 광장 ,10,37.499469,126.8684,고척1동,구로구
1929, 고척근린공원 고척도서관 앞 ,10,37.503814,126.851959,고척2동,구로구
1930, 개봉지구대 개봉치안센터 ,7,37.497684,126.853729,개봉1동,구로구
1931, 개봉역2번출구 A ,10,37.494995,126.858253,개봉1동,구로구
1933, 개봉푸르지오아파트 상가 ,16,37.501705,126.847282,개봉1동,구로구
1936, 개봉역 1번 출구 자전거보관서쪽 ,10,37.494281,126.859214,개봉1동,구로구
1937, 한진아파트 입구 ,15,37.486061,126.852012,개봉3동,구로구
1941, 오류동역 2번출구 ,10,37.493671,126.843704,오류2동,구로구
1943, 온수역 북측 ,10,37.49279,126.824523,수궁동,구로구
1946, 구로역 광장 ,10,37.503116,126.880386,구로5동,구로구
1951, 천왕이펜하우스 4단지 후문 ,15,37.480705,126.838958,오류2동,구로구
1952, 천왕연지타운2단지 앞 ,20,37.482105,126.845726,오류2동,구로구
1953, 천왕역 4번출구 뒤 ,20,37.486385,126.83921,오류2동,구로구
1955, 디지털입구 교차로 ,10,37.482883,126.901039,구로3동,구로구
1956, 동아1차APT105동 버스정류장(신도림중학교 방면) ,15,37.510009,126.882049,신도림동,구로구
1957, 구일고등학교 정문  ,15,37.4934,126.874328,구로1동,구로구
1958, 강서수도사업소민원센터 ,15,37.49578,126.890121,구로5동,구로구
1959, 구로구의회 앞 ,10,37.496456,126.889587,구로5동,구로구
1960, 구로거리공원 동측(신도림역 방면) ,10,37.502849,126.88948,구로5동,구로구
1961, 신도림테크노근린공원 ,15,37.508182,126.891334,구로5동,구로구
1962, 가리봉동주민센터 ,15,37.481601,126.892799,구로3동,구로구
1964, 원메디타운 앞 ,10,37.49789,126.864501,고척1동,구로구
1965, 삼환로즈빌아파트 105동 옆 ,15,37.497241,126.859123,개봉1동,구로구
1966, 한마을아파트 정문상가 ,10,37.496498,126.863098,개봉1동,구로구
1967, 참새공원(백곡경노당) ,10,37.505138,126.844337,개봉1동,구로구
1968, 동인오피스텔 건너편 소공원 ,7,37.498481,126.847503,개봉1동,구로구
1969, 궁동생태공원 ,10,37.501903,126.828964,수궁동,구로구
1971, 오정초교 앞 보도육교 ,10,37.490722,126.826393,수궁동,구로구
1973, 오리로와 서해안도로 교차로 앞 ,10,37.488597,126.836494,오류2동,구로구
1974, 신도림2차e편한세상아파트 203동 앞 ,9,37.50518,126.882537,신도림동,구로구
1975, 대림역 1번 출입구 밑 ,10,37.492565,126.894752,구로4동,구로구
1976, 남구로역 5번 출입구 앞 ,10,37.485679,126.886703,구로4동,구로구
1977, 천왕역 1번 출입구 앞 ,15,37.486209,126.838821,오류2동,구로구
1981, 천왕지구삼거리 앞 ,10,37.479431,126.842697,오류2동,구로구
1983, 구로동롯데아파트 ,10,37.502548,126.88388,구로5동,구로구
1984, 구로구청 ,10,37.495265,126.888473,구로2동,구로구
1985, 구로도서관 ,20,37.498516,126.89199,구로5동,구로구
1986, 태평양물산 ,15,37.484859,126.895187,구로3동,구로구
1987, 개봉아이파크아파트 앞 ,15,37.490341,126.860931,개봉2동,구로구
1988, 고척LIGA아파트 앞 ,20,37.50605,126.860786,고척2동,구로구
1991, 오류동역 맞은편 ,13,37.496761,126.844963,오류1동,구로구
1992, 구로구배드민턴실내체육관 앞 ,12,37.491798,126.83242,오류2동,구로구
1993, 금강수목원아파트 앞 ,10,37.489379,126.834198,오류2동,구로구
1994, 삼성전자 물류센터 앞 ,10,37.496997,126.87178,구로2동,구로구
1996, 구일역 1번 출입구 앞 ,20,37.495399,126.871009,구로1동,구로구
1998, 고척교 교차로 ,23,37.498569,126.871521,구로2동,구로구
1999, 수궁동 성당 주변 ,10,37.495258,126.830657,수궁동,구로구
2000, 신도림4차 e편한세상 아파트 1109동 앞 ,15,37.512329,126.886833,신도림동,구로구
2002, 노들역 1번출구 ,17,37.512844,126.952468,노량진1동,동작구
2003, 사육신공원앞 ,10,37.513359,126.948059,노량진1동,동작구
2007, 유한양행앞 ,20,37.512939,126.934242,대방동,동작구
2008, 노량진근린공원 대방공원 ,10,37.509368,126.92807,대방동,동작구
2009, 보라매역 8번출구 ,10,37.500076,126.921081,대방동,동작구
2012, 대림사거리(동작상떼빌아파트) ,10,37.488361,126.906227,신대방1동,동작구
2013, 장승배기역 5번출구 ,30,37.505851,126.939361,노량진2동,동작구
2015, 신대방삼거리역 6번출구쪽 ,20,37.499855,126.929565,대방동,동작구
2016, 신대방삼거리역 3번출구쪽 ,10,37.499645,126.927093,대방동,동작구
2020, 장승배기역2번출구뒷편쪽 ,10,37.504497,126.938987,상도2동,동작구
2024, 상도역 1번출구 ,10,37.502178,126.948204,상도1동,동작구
2025, 흑석역 1번출구 ,20,37.50938,126.963615,흑석동,동작구
2026, 흑석역 4번출구 ,10,37.508586,126.963493,흑석동,동작구
2027, 중앙대학교 정문 1 ,15,37.507041,126.959152,흑석동,동작구
2032, 이수역 11번출구쪽 ,10,37.485507,126.98162,사당2동,동작구
2033, 사당동 아르테스 웨딩앞 ,10,37.481491,126.981582,사당1동,동작구
2034, 사당역 7번출구쪽 ,20,37.47689,126.980575,사당1동,동작구
2036, 정금마을 마을버스정류장 ,12,37.494663,126.982444,사당2동,동작구
2037, 동작역 5번출구 동작주차공원 ,20,37.503189,126.977149,사당2동,동작구
2038, 동작역 7번출구 ,10,37.503181,126.976089,사당2동,동작구
2040, 비계 버스정류소 ,10,37.506359,126.969078,흑석동,동작구
2041, 사당중학교 버스정류소 ,7,37.486835,126.968048,사당3동,동작구
2048, 삼일초등학교 인근 ,10,37.489078,126.973564,사당3동,동작구
2050, 노량진역 5번출구 ,15,37.513248,126.939971,노량진2동,동작구
2054, 삼익아파트 ,10,37.510547,126.944847,노량진1동,동작구
2056, 동작구민 체육센터 ,10,37.494499,126.916526,신대방2동,동작구
2057, 상도 아이파크 아파트 ,10,37.500881,126.941749,상도2동,동작구
2058, 동작경찰서 ,14,37.513523,126.943527,노량진1동,동작구
2059, 보라매공원 정문 ,10,37.497077,126.917793,신대방2동,동작구
2060, 남성역3번출구 뒤 ,10,37.48463,126.971549,사당3동,동작구
2061, 한강 현대아파트 건너편 ,8,37.505928,126.96923,흑석동,동작구
2062, 사당새마을금고 ,10,37.486652,126.967842,사당5동,동작구
2064, 흑석한강푸르지오 106동앞 ,10,37.505355,126.966178,흑석동,동작구
2065, 서울시여성가족재단 ,10,37.511989,126.927085,대방동,동작구
2066, 양문교회 앞 ,10,37.489398,126.907112,신대방1동,동작구
2067, 보라매역?동작세무서 버스정류장(강남중학교방면) ,10,37.497669,126.919868,신대방2동,동작구
2068, 총신대 앞(육교) ,8,37.488159,126.966476,사당3동,동작구
2069, 숭실대 입구역3번 출구 앞 ,7,37.496601,126.953681,상도1동,동작구
2070, 노량진역 2번 출구 앞 ,18,37.513919,126.943069,노량진1동,동작구
2071, 대림아파트 후문 상가 옆 ,10,37.488868,126.971908,사당3동,동작구
2077, 노들역 3번출구 ,10,37.511936,126.954162,노량진1동,동작구
2078, 흑석 아크로리버하임(103동) ,13,37.510837,126.961631,흑석동,동작구
2079, 중앙대학교 중앙광장 ,25,37.506671,126.957778,흑석동,동작구
2080, 대방지하보도(대방동경남아너스빌아파트) ,15,37.512134,126.925437,대방동,동작구
2082, 7호선 이수역7번출구 ,10,37.484607,126.981796,사당1동,동작구
2083, 흑석롯데캐슬에듀포레(107동) ,10,37.504703,126.960731,흑석동,동작구
2084, e편한세상 상도노빌리티 앞 ,15,37.504562,126.946784,상도2동,동작구
2086, 삼일수영장 앞 ,22,37.487121,126.974357,사당3동,동작구
2088, 상도중앙하이츠빌 입구 ,10,37.500247,126.949729,상도1동,동작구
2089, 사당역10번출구(금강빌딩) ,10,37.479106,126.981506,사당1동,동작구
2090, 기아자동차 사당점 앞 ,15,37.483779,126.97792,사당1동,동작구
2091, 이수역9번출구 ,15,37.484703,126.98059,사당1동,동작구
2092, 흑석한강푸르지오(110동) ,10,37.503112,126.964714,흑석동,동작구
2093, 상도SH빌아파트 입구 ,8,37.503211,126.954597,상도1동,동작구
2094, 숭실대학교(중문)  ,20,37.495506,126.956375,상도1동,동작구
2095, 경문고등학교 앞 ,10,37.4915,126.982406,사당2동,동작구
2096, 서울특별시 동작관악교육지원청 ,8,37.502513,126.94065,상도2동,동작구
2102, 봉림교 교통섬 ,13,37.484085,126.926887,신림동,관악구
2103, 신림동 우방아파트 ,10,37.489177,126.919273,신사동,관악구
2103, 신림동 우방아파트 ,10,37.489177,126.919273,신사동,강남구
2104, 사당역 5번출구 ,13,37.476089,126.98133,남현동,관악구
2105, 미성동 신림체육센터 ,12,37.480251,126.914604,미성동,관악구
2106, 세이브마트 ,12,37.473728,126.918403,난곡동,관악구
2108, 은천치안센터 ,20,37.483341,126.943199,은천동,관악구
2109, 은천로입구 가로공원 ,22,37.486202,126.935813,은천동,관악구
2110, 조원동 미성아파트 ,9,37.483192,126.90203,조원동,관악구
2111, 서울대입구역 1번출구 ,10,37.480869,126.953315,낙성대동,관악구
2112, 서울대입구역 마에스트로 ,15,37.481338,126.950645,청룡동,관악구
2115, 관악구시설관리공단 ,20,37.479915,126.902839,조원동,관악구
2116, 에이스에이존빌딩 ,9,37.481704,126.950828,중앙동,관악구
2119, 중앙동 동진빌딩 ,10,37.484256,126.954696,중앙동,관악구
2122, 낙성대로 입구 ,20,37.478057,126.960495,낙성대동,관악구
2127, 난곡종점 ,10,37.464885,126.919479,난향동,관악구
2128, 관악구청교차로 ,12,37.479164,126.952583,낙성대동,관악구
2129, 낙성대 과학전시관 ,10,37.469055,126.958145,낙성대동,관악구
2130, 영어마을 관악캠프 ,10,37.471988,126.958427,낙성대동,관악구
2137, KT&G 관악지점 ,10,37.484901,126.936531,은천동,관악구
2139, 서울신성초등학교 ,10,37.471164,126.937019,서림동,관악구
2140, 신림1교 교차로 ,20,37.478427,126.931861,서원동,관악구
2141, 미림여고입구 교차로 ,8,37.472293,126.93341,삼성동,관악구
2143, 서울산업정보학교 ,10,37.470695,126.942199,대학동,관악구
2144, 난우길입구 ,15,37.477775,126.916755,미성동,관악구
2145, 은천초등학교 육교 ,12,37.486358,126.942924,은천동,관악구
2148, 낙성대역 3번출구 뒤 ,10,37.477027,126.963394,인헌동,관악구
2156, 신림푸르지오아파트 ,12,37.48072,126.909324,조원동,관악구
2159, 인헌초교 ,10,37.47509,126.959228,낙성대동,관악구
2164, 관악우체국 ,8,37.484767,126.932876,신림동,관악구
2165, JK장평타워 ,10,37.476482,126.965362,행운동,관악구
2167, 낙성대역 1번출구 ,12,37.476295,126.964958,인헌동,관악구
2169, 봉천역 2번출구 ,7,37.482189,126.942131,청룡동,관악구
2170, 조원동 강남힐병원 ,10,37.481529,126.912033,조원동,관악구
2171, 서울대입구역 5번출구 ,17,37.481548,126.952003,중앙동,관악구
2172, 나들목공원 ,15,37.469406,126.944511,대학동,관악구
2173, 당곡사거리 ,10,37.489749,126.927467,보라매동,관악구
2174, 삼성디지털프라자관악점 ,10,37.488563,126.928482,신림동,관악구
2175, 신림동걷고싶은문화의거리입구 ,10,37.4873,126.928703,신림동,관악구
2176, 보라매공원 보도육교 ,15,37.48899,126.916381,신사동,관악구
2176, 보라매공원 보도육교 ,15,37.48899,126.916381,신사동,강남구
2178, 서울대학교 정문 ,20,37.467094,126.949325,대학동,관악구
2179, 양녕로 입구 ,7,37.482189,126.946159,은천동,관악구
2183, 동방1교 ,20,37.471828,126.933921,삼성동,관악구
2184, 구암초등학교 버스정류장 ,10,37.48949,126.945922,은천동,관악구
2185, 대학동 고시촌 ,10,37.470466,126.938652,대학동,관악구
2186, 낙성대입구삼거리 ,15,37.47882,126.959609,행운동,관악구
2187, 현대시장사거리 ,15,37.486736,126.947517,중앙동,관악구
2189, 봉천역 4번출구 ,15,37.482753,126.941406,은천동,관악구
2190, 도원맨션 ,12,37.483688,126.939155,은천동,관악구
2191, 대학동주민센터  ,10,37.470687,126.936485,대학동,관악구
2195, 은천교회 ,15,37.484645,126.934509,서원동,관악구
2196, 봉천역 3번출구 ,15,37.48331,126.939025,청룡동,관악구
2198, 사랑의병원 ,10,37.479465,126.956932,낙성대동,관악구
2199, 신봉천주유소 A ,8,37.478771,126.958694,낙성대동,관악구
2201, 본마을 정류소 앞 ,14,37.453281,127.051483,내곡동,서초구
2202, 청계산입구역 1번출구 ,20,37.448936,127.054374,내곡동,서초구
2203, 청계산입구역 2번출구 ,10,37.447658,127.055015,양재2동,서초구
2205, 내곡3단지 어린이공원 앞 ,15,37.45375,127.059379,내곡동,서초구
2206, 언남초등학교 앞 ,20,37.454357,127.062103,내곡동,서초구
2207, 내곡파출소 뒤 정자 ,9,37.454406,127.064926,내곡동,서초구
2210, 반포1동 주민센터 앞 ,10,37.505096,127.013107,반포1동,서초구
2211, 서초구립반포도서관 앞 ,10,37.502635,127.012313,반포1동,서초구
2212, 서초현대4차아파트 201동 맞은편 ,14,37.500652,127.018615,반포1동,서초구
2213, 고속터미널역 5번출구 앞 ,20,37.502231,127.002258,반포2동,서초구
2214, 신반포역 2번출구 앞 ,15,37.504116,126.997489,반포2동,서초구
2215, 반포종합운동장 입구 ,10,37.501712,126.995475,반포2동,서초구
2219," 고속터미널역 8-1번, 8-2번 출구 사이 ",20,37.506198,127.003944,반포3동,서초구
2221, 방일초교 마을버스 정류장 ,15,37.48561,126.994682,방배1동,서초구
2222, 사당역 12번출구 뒤 ,10,37.478069,126.982032,방배2동,서초구
2223, 방배래미안 정문 앞 ,15,37.47261,126.983009,방배2동,서초구
2225, 백석예술대학교 제3캠퍼스 앞 ,10,37.473758,126.995246,방배3동,서초구
2226, 신동아럭스빌아파트 앞 ,10,37.475181,127.001388,방배3동,서초구
2227, 방배열린문화센터 앞 ,15,37.489051,126.992523,방배4동,서초구
2228, 뒷벌공원 옆 ,15,37.489768,126.986763,방배4동,서초구
2230, 이수역 4번 출구 ,20,37.485828,126.982627,방배4동,서초구
2231, 삼성타운(삼성생명) A동 맞은편 ,17,37.496913,127.024963,서초2동,서초구
2233, 서초신동아1차아파트 옆 ,13,37.491111,127.022956,서초1동,서초구
2235, KT 서초지사 앞 ,10,37.482158,127.0027,서초3동,서초구
2237, 서울남부터미널 대합실 입구 ,20,37.484558,127.014869,서초3동,서초구
2239, 교대역 6번출구 ,10,37.494216,127.013786,서초4동,서초구
2241, 양재전화국 사거리 ,6,37.485378,127.041702,양재1동,서초구
2242, 양재역 11번 출구 앞 ,20,37.483989,127.034179,서초2동,서초구
2243, 서울가정법원 ,15,37.481491,127.036727,양재1동,서초구
2244, 교육개발원입구 교차로 ,20,37.477851,127.038909,양재1동,서초구
2245, 양재초등학교 맞은편 ,20,37.473613,127.030509,양재1동,서초구
2246, 서울시 품질시험소 앞 ,10,37.4692,127.029006,양재1동,서초구
2247, 섬들근린공원 ,30,37.462638,127.026618,양재1동,서초구
2248, 서초리슈빌S 글로벌 앞 ,10,37.459953,127.024742,양재1동,서초구
2249, 우솔초등학교 맞은편 ,10,37.456233,127.019348,양재1동,서초구
2250, 서초유치원 맞은편 ,10,37.455799,127.016288,양재1동,서초구
2251, 더케이호텔 입구(양재2)  ,10,37.467506,127.034477,양재2동,서초구
2252, 잔디마을 마을버스 정류장 ,25,37.463321,127.036041,양재2동,서초구
2255, 양재시민의숲역 1번출구 ,25,37.470165,127.03862,양재2동,서초구
2256, 양재동 꽃시장 입구 ,10,37.467689,127.040359,양재2동,서초구
2257, 청계산 입구 삼거리 ,10,37.462688,127.046112,양재2동,서초구
2258, 구룡사 삼거리 ,20,37.471538,127.05059,양재2동,서초구
2259, 잠원역 3번-4번 출구사이 ,15,37.512989,127.011177,잠원동,서초구
2263, 바우뫼문화복지회관 ,20,37.471927,127.02684,양재1동,서초구
2264, 이수역 1번출구 ,9,37.488971,126.982719,방배4동,서초구
2265, 이수고가차도 남단 ,10,37.494743,126.983062,방배본동,서초구
2266, 서초역 3번출구 ,15,37.490539,127.008163,서초3동,서초구
2268, 서초4동주민센터  ,10,37.502319,127.02227,서초4동,서초구
2269, 주홍교 하부 ,15,37.510349,127.016052,잠원동,서초구
2270, 서초포레스타 7단지 ,10,37.448966,127.057739,내곡동,서초구
2271, 내방역 8번출구 앞 ,8,37.488021,126.994117,방배4동,서초구
2273, 일동제약 사거리 ,10,37.477828,127.038269,양재1동,서초구
2274, 양재시민의숲역 3번출구 ,10,37.469242,127.039825,양재2동,서초구
2275, 염곡치안센터 건너편 ,7,37.461494,127.049072,내곡동,서초구
2277, 길마중4교 하부 ,10,37.514839,127.015602,잠원동,서초구
2279, 교대역 5번출구뒤 ,10,37.493618,127.014183,서초1동,서초구
2280, 서울서초고용센터앞 ,10,37.484161,127.010971,서초3동,서초구
2281, 연세사랑병원신관앞 ,7,37.475978,126.986282,방배3동,서초구
2283, 그룹한빌딩옆 ,10,37.486526,126.989166,방배4동,서초구
2284, CJ오쇼핑앞 ,15,37.468101,126.986801,방배2동,서초구
2285, LH서초3단지 301동 맞은편 ,10,37.457424,127.022651,양재1동,서초구
2286, 탑성마을입구 ,7,37.458549,127.055885,내곡동,서초구
2287, 능안마을입구 ,10,37.455619,127.0671,내곡동,서초구
2288, 안골마을입구 ,7,37.455608,127.064453,내곡동,서초구
2289, 남태령역 2번출구 ,10,37.464298,126.988525,방배2동,서초구
2293, SPC 앞 ,10,37.484798,127.036994,도곡1동,강남구
2294, 두상빌딩 앞 ,15,37.475906,127.046241,양재2동,서초구
2297, 남부터미널역 1번출구 ,10,37.485672,127.015922,서초1동,서초구
2299, 한전아트센터 앞 ,12,37.486469,127.02806,서초2동,서초구
2301, 현대고등학교 건너편 ,10,37.52407,127.021789,신사동,관악구
2301, 현대고등학교 건너편 ,10,37.52407,127.021789,신사동,강남구
2302, 교보타워 버스정류장(신논현역 3번출구 후면) ,10,37.50558,127.024276,논현1동,강남구
2303, 논현역 10번출구 ,15,37.511371,127.021461,논현1동,강남구
2304, 대현그린타워 ,10,37.511627,127.035652,논현2동,강남구
2305, MCM 본사 직영점 앞 ,6,37.520641,127.034507,논현2동,강남구
2306, 압구정역 2번 출구 옆 ,26,37.527122,127.028717,압구정동,강남구
2307, 압구정 한양 3차 아파트 ,10,37.528381,127.039016,압구정동,강남구
2308, 압구정파출소 앞 ,14,37.5293,127.035598,압구정동,강남구
2309, 청담역(우리들병원 앞) ,10,37.518901,127.049385,청담동,강남구
2310, 청담동 맥도날드 옆(위치) ,10,37.523612,127.040176,청담동,강남구
2311, 학동로 래미안 아파트 앞 ,6,37.517772,127.043022,청담동,강남구
2312, 청담역 13번 출구 앞 ,10,37.52058,127.056327,청담동,강남구
2313, 금원빌딩 앞 ,10,37.525115,127.052467,청담동,강남구
2314, 청담나들목입구 ,10,37.521015,127.06015,삼성1동,강남구
2315, 봉은사역 5번출구 옆 ,10,37.514247,127.061119,삼성1동,강남구
2317, 삼성도로공원 ,10,37.515888,127.0662,삼성1동,강남구
2318, 삼성중앙역4번출구(문화센터더 리빌) ,16,37.513576,127.05503,삼성1동,강남구
2319, 포스코사거리 서측(수협 삼성동 지점) ,10,37.506607,127.054679,삼성2동,강남구
2320, 도곡역 대치지구대 방향 ,10,37.491928,127.056968,대치1동,강남구
2321, 학여울역 사거리 ,10,37.496116,127.069442,대치2동,강남구
2323, 주식회사 오뚜기 정문 앞 ,10,37.502212,127.067207,대치2동,강남구
2324, 천주교 대치 2동 교회 옆 ,10,37.500438,127.066223,대치2동,강남구
2325, 대치삼성아파트 앞 교차로 ,10,37.498649,127.059318,대치4동,강남구
2326, 대치동 삼성로 ,10,37.502395,127.058799,대치2동,강남구
2327, 뱅뱅사거리 랜드마크타워 앞 ,15,37.49055,127.031463,역삼1동,강남구
2328, 르네상스 호텔 사거리 역삼지하보도 7번출구 앞 ,10,37.503211,127.042732,역삼1동,강남구
2329, 르네상스호텔사거리 역삼지하보도 2번출구 ,10,37.502357,127.04319,역삼2동,강남구
2330, 역삼월드메르디앙아파트 앞 ,10,37.492198,127.039459,역삼1동,강남구
2331, 동영문화센터앞 ,10,37.49805,127.044601,역삼2동,강남구
2332, 선릉역3번출구 ,8,37.504009,127.049079,역삼2동,강남구
2334, 삼호아파트 2동 ( 간선도로) ,12,37.493759,127.045898,도곡1동,강남구
2335, 3호선 매봉역 3번출구앞 ,15,37.486766,127.04676,도곡1동,강남구
2336, 강남세브란스교차로  래미안그레이튼 104동 앞 ,10,37.494235,127.047462,도곡2동,강남구
2337, 대모산입구역 2번출구 앞 ,10,37.492076,127.071975,개포2동,강남구
2339, 현대아파트 정문 앞 ,10,37.483261,127.052299,개포4동,강남구
2340, 삼호물산버스정류장(23370) 옆 ,17,37.477508,127.045173,개포4동,강남구
2341, 일원역 4~5번 출구 사이 ,10,37.48331,127.084938,일원본동,강남구
2342, 대청역 1번출구  뒤 ,15,37.494007,127.079513,개포3동,강남구
2343, 세곡사거리 대왕파출소 앞 ,10,37.465316,127.107727,세곡동,강남구
2344, 리엔파크 2단지 앞 ,10,37.465061,127.101196,세곡동,강남구
2347, 두산건설 본사 ,11,37.518638,127.0354,논현2동,강남구
2348, 포스코사거리(기업은행) ,23,37.507232,127.056854,삼성1동,강남구
2349, 역삼빌딩 앞(하나은행 옆) ,12,37.501544,127.038566,역삼1동,강남구
2350, 래미안그레이튼102동앞 ,9,37.494823,127.047904,역삼2동,강남구
2351, 청소년수련관(수영장)앞 ,11,37.483879,127.089027,일원본동,강남구
2352, 서울본부세관(건설회관 앞) ,6,37.517589,127.035026,논현2동,강남구
2353, 강남구청역 2번출구 뒤 ,10,37.516811,127.040473,논현2동,강남구
2354, 청담역 2번출구 ,5,37.519786,127.056762,삼성1동,강남구
2356, 강남구청 ,10,37.51807,127.047119,삼성2동,강남구
2357, 르네상스호텔사거리 역삼지하보도 3번출구 앞 (더 오번 빌딩 명동칼국수 앞) ,10,37.501663,127.042976,역삼2동,강남구
2358, 구룡초사거리 (현대아파트10동 앞 ) ,7,37.481384,127.053916,개포1동,강남구
2359," 국립국악중,고교 정문 맞은편 ",10,37.475605,127.050376,개포4동,강남구
2360, 도곡1동 주민센터 교차로 ,9,37.492809,127.041389,역삼2동,강남구
2362, 신사동 가로수길 입구 ,10,37.517635,127.022453,신사동,관악구
2362, 신사동 가로수길 입구 ,10,37.517635,127.022453,신사동,강남구
2363, 강남 을지병원 교차로 ,15,37.519138,127.027519,논현1동,강남구
2364, 도산공원교차로 ,10,37.52124,127.031898,압구정동,강남구
2365, K+ 타워 앞 ,15,37.5233,127.038475,압구정동,강남구
2368, 도곡동 경남아파트 건너편 ,7,37.489341,127.041297,도곡1동,강남구
2369, KT선릉타워 ,20,37.505428,127.052871,대치4동,강남구
2370, 한티역 3번출구 ,10,37.496551,127.054298,대치1동,강남구
2371, 한국우편사업진흥원 ,6,37.514747,127.035133,논현2동,강남구
2372, 대치역 사거리 ,10,37.494499,127.063797,대치2동,강남구
2373, 개포동역 사거리 ,20,37.489276,127.065574,개포2동,강남구
2375, 수서역 1번출구 앞 ,14,37.48735,127.100997,수서동,강남구
2376, 수서역 6번출구 앞 ,14,37.486778,127.100517,수서동,강남구
2377, 수서역 5번출구 ,9,37.48735,127.102325,수서동,강남구
2380, 삼성동베이직하우스앞 ,12,37.511695,127.049346,삼성2동,강남구
2381, 언주역 6번출구앞 ,8,37.506366,127.034523,역삼1동,강남구
2382, 역삼동 sk뷰 501동앞 ,6,37.501228,127.050361,역삼2동,강남구
2383, 보금자리정원 ,10,37.466327,127.094886,세곡동,강남구
2384, 자곡사거리 ,15,37.476028,127.105941,세곡동,강남구
2385, 학동역 ,10,37.51395,127.030151,논현1동,강남구
2386, 크린랩 본사 ,10,37.509586,127.040908,논현2동,강남구
2387, 래미안강남힐즈 사거리 ,10,37.472454,127.096076,세곡동,강남구
2388, 강남구 도시관리공단 ,18,37.516784,127.051612,삼성1동,강남구
2389, 경기여자고등학교 후문 (삼성로3길 입구) ,15,37.48616,127.067237,개포2동,강남구
2390, 구룡마을 입구 (래미안블레스티지 아파트) ,13,37.48088,127.063041,개포2동,강남구
2391, 구룡터널 입구(개포1단지아파트) ,7,37.475986,127.059623,개포1동,강남구
2392, 구룡산 입구 (구룡산 서울둘레길 입구) ,10,37.474472,127.05545,개포4동,강남구
2393, 구룡사 앞 교차로 (보도육교) ,7,37.472,127.051338,개포4동,강남구
2394, 개포래미안포레스트아파트 107동 앞 ,10,37.480251,127.054191,개포4동,강남구
2396, 영동3교 북단(우성캐릭터 앞 보도) ,15,37.48574,127.051048,도곡2동,강남구
2398, 더라움 ,10,37.50811,127.039451,역삼1동,강남구
2401, 밀알학교 입구 (삼성서울병원 입구) ,10,37.48656,127.082672,일원본동,강남구
2403, 공무원연금매점 교차로 (개포주공9단지 입구) ,10,37.488719,127.074539,개포2동,강남구
2404, 대모산입구역 4번 출구 앞 ,10,37.491809,127.073158,개포3동,강남구
2405, 청담공원앞 교차로 ,14,37.518711,127.050849,삼성1동,강남구
2406, 논현동 광명빌딩 앞 ,10,37.51757,127.023643,논현1동,강남구
2407, 역삼서초삼성 세무서 앞 (역삼빌딩 앞) ,10,37.49847,127.030113,역삼1동,강남구
2408, 강남한양수자인아파트 ,14,37.47734,127.113273,세곡동,강남구
2409, 역삼동 디오슈페리움 (우성아파트 사거리) ,20,37.492061,127.030746,역삼1동,강남구
2410, 포스코피앤에스타워 (역삼역 3번출구 부근) ,10,37.499599,127.033752,역삼1동,강남구
2411, 세곡동 성당 ,15,37.472969,127.112228,세곡동,강남구
2412, 일원1동 주민센터 ,15,37.491703,127.088226,일원1동,강남구
2413, 도곡역 1번 출구 ,20,37.490959,127.054985,도곡2동,강남구
2414, 도곡역 아카데미스위트 앞 ,20,37.488971,127.051826,도곡2동,강남구
2415, 한티역 롯데백화점 앞 ,15,37.496673,127.053428,대치4동,강남구
2416, 한티역 6번 출구 ,10,37.495899,127.052192,도곡2동,강남구
2417," 선정릉 디캠프(D,CAMP)앞 ",10,37.507999,127.045249,역삼1동,강남구
2418, 봉은사역 7번 출구  ,10,37.513935,127.059822,삼성1동,강남구
2419," 봉은사역 1,2번 출구  ",13,37.514308,127.0597,삼성1동,강남구
2420, 학여울역 사거리(LG베스트샵 앞) ,20,37.496894,127.070137,대치2동,강남구
2421, 신논현역 4번출구 ,15,37.504673,127.025794,역삼1동,강남구
2422, 수서동 성당 맞은편 ,10,37.484169,127.094848,수서동,강남구
2423, 영희초교 사거리(래미안개포루체하임) ,10,37.490837,127.08065,개포3동,강남구
2425, 세곡동 사거리(대왕초등학교 정류장) ,20,37.464618,127.106849,세곡동,강남구
2426, 강남한신휴플러스 6단지 ,10,37.468296,127.104698,세곡동,강남구
2427, 개포고등학교 정문앞 ,10,37.484851,127.058372,개포2동,강남구
2429, 압구정로데오역 6번출구 ,10,37.527454,127.040428,압구정동,강남구
2430, 강남파이낸스센터앞(역삼역2번출구) ,10,37.500244,127.036056,역삼1동,강남구
2431, 대치역 7번출구 ,10,37.494117,127.062904,대치1동,강남구
2501, 서초 포레스타5단지 ,10,37.45066,127.05706,내곡동,서초구
2502, 서초역1번출구 앞 ,9,37.49195,127.008552,서초3동,서초구
2503, 반포1동 서초빌딩 앞 ,10,37.50381,127.021362,반포1동,서초구
2504, 신사역 4번출구 뒤 ,10,37.51588,127.019302,잠원동,서초구
2505, 우성아파트사거리 (기업은행앞) ,12,37.493259,127.029533,서초2동,서초구
2506, LG유플러스 (방배사옥) ,10,37.479091,126.990676,방배3동,서초구
2508, 양재이스타빌 앞 ,10,37.482978,127.042259,양재1동,서초구
2509, 심산기념문화센터 ,16,37.498363,126.991149,반포2동,서초구
2510, JW타워 ,8,37.483039,127.021461,서초1동,서초구
2511, 이수역 6번출구 앞 ,10,37.483661,126.982322,방배2동,서초구
2514, 사평역 2번출구 ,10,37.503643,127.016021,반포1동,서초구
2515, 서초초등학교 후문 ,15,37.498928,127.024726,서초4동,서초구
2516, 본마을 노인복지센터 앞 ,9,37.454418,127.052742,내곡동,서초구
2517, 서초그랑자이 앞 ,20,37.487682,127.024787,서초2동,서초구
2518, 서초동 현대아파트 앞 ,10,37.487316,127.024894,서초2동,서초구
2519, 서초2교(사임당로 방면) ,10,37.491008,127.023521,서초2동,서초구
2520, 서초1교 (진흥아파트 방면) ,20,37.495933,127.021774,서초2동,서초구
2521, 서초 크로바타워 앞 ,13,37.495563,127.01918,서초4동,서초구
2523, 뉴코아 킴스클럽 앞 ,10,37.510192,127.007255,반포3동,서초구
2524, 반포쇼핑타운 8동 앞 ,15,37.50735,127.008018,반포3동,서초구
2525, 반포쇼핑타운 2동 앞 ,20,37.505607,127.002159,반포3동,서초구
2529, 우리은행 방배동지점 앞 ,12,37.489917,126.99208,방배4동,서초구
2530, 삼호3차아파트 앞 ,15,37.497795,126.987068,방배본동,서초구
2531, 멤피스아파트 앞 ,20,37.494205,126.989356,방배본동,서초구
2532, 국립국악원 앞 ,13,37.478202,127.008781,서초3동,서초구
2533, 한가람미술관 앞 ,10,37.480876,127.014526,서초3동,서초구
2535, 신반포역 3번출구 뒤 ,10,37.503623,126.997322,반포2동,서초구
2536, 서초종합체육관 입구 ,10,37.458995,127.04132,양재2동,서초구
2537, 양재역 8번출구 앞 ,10,37.48257,127.036437,양재1동,서초구
2538, 사평리근린공원 ,25,37.520267,127.015251,잠원동,서초구
2539, 대한무역투자진흥공사 KOTRA 앞 ,20,37.465408,127.043777,내곡동,서초구
2540, 반포천 앞 ,10,37.49905,126.996253,반포4동,서초구
2541, 옛골 입구 ,10,37.430976,127.070335,내곡동,서초구
2542, 신논현타워 앞 ,10,37.505088,127.02391,반포1동,서초구
2545, 국립중앙도서관(국제회의장옆) ,15,37.497211,127.004272,반포4동,서초구
2547, 반포래미안 리오센트 ,7,37.518321,127.014808,잠원동,서초구
2548, 반포1동 자율방범초소 옆 ,18,37.508476,127.016761,반포1동,서초구
2549, LH 서초 4단지 403동 ,10,37.459247,127.023902,양재1동,서초구
2550, 양재동 꽃시장 건너편 ,10,37.467384,127.041458,양재2동,서초구
2601, 석촌호수 아뜰리에 ,16,37.506748,127.098831,잠실3동,송파구
2603, 송파 글마루 도서관 ,10,37.480953,127.130104,장지동,송파구
2604, 풍납토성 서성벽터A ,10,37.531311,127.111282,풍납2동,송파구
2605, 복정역 1번 출구 앞 ,15,37.471298,127.12709,위례동,송파구
2606, 위례동주민센터 맞은편 근린공원 ,15,37.481739,127.143226,위례동,송파구
2608, 송파구청 ,10,37.515052,127.106269,잠실6동,송파구
2609, 보성중고등학교 후문 앞 ,10,37.520488,127.1352,오륜동,송파구
2611, 송파지역자활센터 뒤 ,7,37.536418,127.116165,풍납1동,송파구
2612, 문정·가락 대여소 앞 ,7,37.488719,127.109825,문정2동,송파구
2613, 잠실나들목 ,18,37.51678,127.090492,잠실2동,송파구
2614, 가락고등학교 앞 ,15,37.501861,127.117233,송파2동,송파구
2615, 테라타워2 ,15,37.488349,127.12078,문정2동,송파구
2616, 거여동 사거리 ,10,37.497047,127.14035,거여1동,송파구
2617, 가락삼환아파트 앞 ,15,37.496181,127.138031,가락2동,송파구
2618, 삼전역 1번출구 ,14,37.504711,127.087562,잠실본동,송파구
2619, 석촌고분역 4번출구 ,9,37.502338,127.096443,삼전동,송파구
2620, 송파나루역 4번 출구옆 ,12,37.509979,127.112312,송파1동,송파구
2621, 한성백제역 2번 출구 ,15,37.516658,127.116256,오륜동,송파구
2622, 올림픽공원역 3번출구 ,20,37.516258,127.130592,오륜동,송파구
2623, 석촌동 주민센터 ,15,37.503623,127.103553,석촌동,송파구
2625, 가락종합 사회복지관 ,15,37.495536,127.1072,가락1동,송파구
2626," 경찰병원역 1,2번 출구 사이 ",15,37.495693,127.123855,가락본동,송파구
2627, 문정시영아파트 5동 앞 공원 ,15,37.491123,127.135108,장지동,송파구
2628, 문정역 1번출구 ,15,37.486698,127.122444,문정1동,송파구
2630, 서울방이동 고분군 ,12,37.507865,127.116989,방이1동,송파구
2631, 배명고등학교 ,15,37.497413,127.096305,삼전동,송파구
2632, 석촌고분역 2번 출구 ,9,37.502643,127.097396,석촌동,송파구
2633, 송파학사 옆 ,20,37.478179,127.147102,위례동,송파구
2634, 위례포레샤인아파트 2318동 ,10,37.477211,127.137176,위례동,송파구
2635, 잠실새내역 1번출구 ,21,37.511295,127.086738,잠실3동,송파구
2637, 아시아지하보도 14번 출구 ,15,37.511463,127.078811,잠실본동,송파구
2639, 석촌역 8번출구 ,18,37.505504,127.106575,석촌동,송파구
2641, 송파역 4번출구 ,15,37.500049,127.111511,가락1동,송파구
2642, 마천동 성내천 쉼터 ,12,37.501495,127.147781,마천2동,송파구
2643, 풍납중학교 측면 ,10,37.525157,127.116943,풍납2동,송파구
2644, 성내5교 ,10,37.501667,127.137741,오금동,송파구
2645, 잠실나들목2(엘스아파트136동) ,10,37.516212,127.084342,잠실2동,송파구
2646, 레이크펠리스101동앞 ,15,37.507759,127.091293,잠실3동,송파구
2647, 잠실 자전거 수리센터 앞 ,7,37.511009,127.101142,잠실3동,송파구
2648, 헬리오시티 112동 앞 ,30,37.494697,127.104644,가락1동,송파구
2649, 오금공원사거리2 ,10,37.505443,127.132331,오금동,송파구
2650, 위례22단지 2208동 다리앞 ,7,37.478549,127.138137,위례동,송파구
2651, 경찰병원역 3번출구 앞 ,20,37.496124,127.124801,가락2동,송파구
2652, 송파 레미니스1단지 102동 앞 ,41,37.508831,127.134262,오금동,송파구
2653, 올림픽공원사거리(선수촌아파트) ,25,37.51202,127.128646,오륜동,송파구
2654, 올림픽선수촌아파트 136동 앞 ,10,37.509975,127.133697,오륜동,송파구
2655, 송이공원 ,20,37.500579,127.118843,송파2동,송파구
2656, 풍납동 아이파크 107동 앞 ,10,37.524803,127.114639,풍납2동,송파구
2657, 송파 파인타운 11단지  ,10,37.47916,127.132194,장지동,송파구
2658, 가락몰 업무동 ,10,37.495357,127.115692,가락1동,송파구
2659, 서울친환경유통센터 ,10,37.494167,127.10453,가락1동,송파구
2701, 마곡나루역 5번출구 뒤편 ,26,37.5652,126.827316,방화1동,강서구
2702, 마곡 엠밸리2단지 ,20,37.569179,126.819442,방화1동,강서구
2703, 서울도시가스 앞  ,20,37.547485,126.872024,염창동,강서구
2704, 홈플러스(강서점) ,10,37.558521,126.854011,등촌1동,강서구
2706, 강서공업고등학교 앞 ,13,37.576316,126.816497,방화3동,강서구
2707, 한강아파트 ,13,37.570369,126.844413,가양1동,강서구
2708, 강서한강자이타워 앞 ,15,37.564682,126.848907,가양1동,강서구
2709, 강변아파트 310동 앞 ,20,37.564586,126.856918,가양2동,강서구
2710, 라이품 공영주차장 앞 ,30,37.571319,126.841667,가양1동,강서구
2711, 가로공원공영주차장 1번 출구 ,9,37.537361,126.837448,화곡1동,강서구
2712, 화곡터널입구교차로 ,18,37.538356,126.842361,화곡1동,강서구
2713, 우장초등학교 앞 ,13,37.548534,126.846672,우장산동,강서구
2715, 마곡나루역 2번 출구  ,25,37.566925,126.827438,가양1동,강서구
2716, 롯데 R&D 센터 ,20,37.570941,126.828315,가양1동,강서구
2717, LG유플러스 마곡사옥 ,62,37.561336,126.8339,가양1동,강서구
2718, 마곡수명산파크1단지 ,20,37.555191,126.831466,발산1동,강서구
2719, 마곡문화공원 ,40,37.56121,126.830345,가양1동,강서구
2720, 힐스테이트에코 ,30,37.559658,126.829605,가양1동,강서구
2721, 등촌1-10단지 교차로 ,12,37.563205,126.839363,가양1동,강서구
2723, 마곡 필네이처 ,13,37.560894,126.836692,가양1동,강서구
2724, (재)FITI시험연구원 ,25,37.568485,126.838569,가양1동,강서구
2725, 서울식물원 식물문화센터 ,20,37.568836,126.835632,가양1동,강서구
2727, 서울식물원 잔디마당 앞 ,25,37.563926,126.830642,가양1동,강서구
2728, 마곡나루역 3번 출구 ,55,37.565803,126.828079,가양1동,강서구
2729, 넥센 유니버시티 앞 ,30,37.569484,126.828094,가양1동,강서구
2730, 마곡메가박스 앞 ,30,37.559127,126.834953,가양1동,강서구
2731, 명덕고교 ,20,37.55524,126.834716,발산1동,강서구
2732, 마곡수명산 1-2단지  ,14,37.555309,126.829856,발산1동,강서구
2733, 마곡13단지 정문 앞 ,15,37.558631,126.819915,공항동,강서구
2735, 마곡 공공청사 ,20,37.562294,126.823951,방화1동,강서구
2737, 까치산역 3번 출구 ,10,37.531589,126.846641,화곡1동,강서구
2739, 수명산파크1단지교차로 ,20,37.55363,126.828613,발산1동,강서구
2740, 마곡레포츠센터 ,20,37.572975,126.832443,가양1동,강서구
2741, 마곡수명산파크5-6단지 ,8,37.550617,126.826881,발산1동,강서구
2742, 강서구민올림픽체육센터 ,10,37.559906,126.850425,등촌3동,강서구
2744, 강서세무서 앞 ,25,37.562091,126.820968,공항동,강서구
2745, 수명초등학교 ,9,37.552558,126.823112,발산1동,강서구
2746, 수명산파크 4단지 411동 앞 ,10,37.551349,126.824935,발산1동,강서구
2801, 대륭포스트타워1차 ,30,37.484371,126.895423,구로3동,구로구
2804, 항동지구 6단지 602동 앞 ,10,37.477375,126.820014,항동,구로구
2805, 구로자원순환센터  ,10,37.482509,126.825759,항동,구로구
2806, 항동지구 4단지 입구 ,10,37.482597,126.826454,항동,구로구
2807, 항동지구 1단지 105동 앞 ,10,37.480628,126.821815,항동,구로구
2808, 항동지구 2단지 202동 앞 ,10,37.480808,126.821907,항동,구로구
2809, 항동지구 11단지 1103동 앞 ,10,37.477905,126.823112,항동,구로구
2810, 항동지구 3단지 311동 앞 ,10,37.477939,126.823272,항동,구로구
2812, 항동프라자 ,15,37.479831,126.822753,항동,구로구
2813, 항동지구 3단지 302동 앞 ,10,37.47937,126.825469,항동,구로구
2814, 항동지구 10단지 1001동 앞 ,10,37.479343,126.825637,항동,구로구
2815, 항동지구 7단지 정문 ,12,37.476036,126.816589,항동,구로구
2816, 항동지구 8단지 803동옆(주차장입구) ,14,37.474731,126.817008,항동,구로구
2817, 천왕이펜하우스5단지 앞 ,10,37.479896,126.84037,오류2동,구로구
2818, 천왕이펜하우스3단지 앞 ,14,37.482238,126.838531,오류2동,구로구
2819, 하늘숲초등학교 앞 ,20,37.483665,126.841613,오류2동,구로구
2820, 신세기아파트 앞 ,10,37.493965,126.853042,개봉2동,구로구
2821, 청구아파트 앞 ,10,37.50119,126.863533,고척1동,구로구
2822, 제니스스포츠 앞 ,14,37.50452,126.870552,고척1동,구로구
2823, 중앙유통단지 앞 ,10,37.499813,126.874313,구로2동,구로구
2824, 미래사랑어린이공원 앞 ,10,37.510063,126.889564,신도림동,구로구
2825, 초롱타운 앞 ,10,37.495452,126.880393,구로2동,구로구
2826, 가마산지하보도 옆 ,10,37.488647,126.88047,구로2동,구로구
2901, 공릉동풍림아파트 101동 ,8,37.629814,127.066505,공릉1동,노원구
2902, 공릉풍림아파트 108동 ,12,37.62862,127.066909,공릉1동,노원구
2903, 월계초안아파트 1단지 ,10,37.633728,127.044364,월계2동,노원구
2904, 중계3차청구아파트 ,8,37.650505,127.073982,중계1동,노원구
2907, 월계중학교 ,15,37.630748,127.053108,월계2동,노원구
2908, 광운대학교 중앙도서관 ,20,37.620002,127.058563,월계1동,노원구
2909, 석계역 3번 출구 ,13,37.615459,127.067451,월계3동,노원구
2910, 도깨비시장 ,10,37.621864,127.07405,공릉1동,노원구
2911, 상계역중앙시장 ,7,37.65887,127.071914,상계5동,노원구
2912, 대진고등학교 ,20,37.638156,127.073265,하계1동,노원구
2913, 상계8동 주민센터 ,17,37.667129,127.051765,상계8동,노원구
2914, 서울과학기술대학교(미래관) ,10,37.629508,127.081039,공릉2동,노원구
2915, 서울과학기술대학교(어학교육원) ,35,37.634899,127.077674,하계1동,노원구
2917, 신창중학교 후문 맞은편 버스정류장 ,10,37.62807,127.04692,월계2동,노원구
2919, 등나무 근린공원(시립북서울미술관 앞)  ,16,37.640205,127.067619,중계2·3동,노원구
2920, 상계중학교(당현2교사거리) ,14,37.651035,127.06871,상계6·7동,노원구
2921, 중계역 2번출구 ,10,37.64587,127.06562,중계2·3동,노원구
3002, 벽산상암스마트큐브  ,10,37.565044,126.903602,성산2동,마포구
3003, 래미안신공덕3차아파트 ,5,37.545547,126.956794,공덕동,마포구
3005, 마포구청 청사내 ,10,37.566246,126.902183,성산2동,마포구
3006, 상암월드컵파크5단지(상암중학교) ,10,37.579299,126.887313,상암동,마포구
3007, MBC 앞 ,10,37.581981,126.890449,상암동,마포구
3008, DMC역7번출구 ,10,37.577114,126.898361,상암동,마포구
3009, 홍대입구역 사거리 ,10,37.555839,126.920433,서교동,마포구
3010, 홍대입구역 3번출구 ,15,37.558296,126.925384,서교동,마포구
3013, 서울지방고용노동청 앞 ,10,37.567604,126.987258,명동,중구
3100, 북성초교 ,8,37.557395,126.952163,북아현동,서대문구
3101, 서대문구청 ,15,37.57838,126.936096,연희동,서대문구
3102, 연희삼거리 ,10,37.567996,126.931655,연희동,서대문구
3103, 홍제삼거리 북측 ,8,37.5867,126.946769,홍제2동,서대문구
3104, e편한세상 신촌4단지 앞 ,13,37.558128,126.956207,북아현동,서대문구
3105, 홍은센트레빌 아파트 앞 ,9,37.597148,126.938529,홍은2동,서대문구
3109, 북한산더 106동 앞 ,10,37.592933,126.941291,홍은1동,서대문구
3110, 홍은 현대아이파크 아파트 202동 앞 ,15,37.589282,126.936943,홍은2동,서대문구
3111, 무악재역 4번 출구 ,10,37.58221,126.950164,홍제1동,서대문구
3113, 독립문 앞 ,15,37.572204,126.959747,천연동,서대문구
3114, 충정로역 3번 출구 ,7,37.560462,126.965522,충현동,서대문구
3115, 북아현 치안센터 인근 ,20,37.561454,126.955749,북아현동,서대문구
3116, 신촌역 4번출구 ,10,37.555503,126.937202,신촌동,서대문구
3117, 이화여대 인문관 인근 ,10,37.564067,126.945327,신촌동,서대문구
3119, 연희 브라운스톤 아파트 앞 ,10,37.565196,126.929855,연희동,서대문구
3120, DMC엘가아파트 앞 ,12,37.569835,126.91809,남가좌1동,서대문구
3121, 가좌삼거리 ,15,37.570652,126.912986,북가좌1동,서대문구
3122, 북가좌삼거리2 ,20,37.574283,126.906463,북가좌1동,서대문구
3123, DMC파크뷰자이1단지 110동 앞 ,30,37.572254,126.9151,남가좌1동,서대문구
3125, 연희파크푸르지오아파트 앞 ,20,37.575641,126.927825,연희동,서대문구
3126, 남가좌동 제2공영주차장 ,10,37.583343,126.922744,남가좌2동,서대문구
3127, 홍은2파출소 옆 ,10,37.583335,126.936286,홍은2동,서대문구
3128, 동신병원 맞은편 ,7,37.581317,126.935997,홍은2동,서대문구
3129, DMC래미안e편한세상203동옆 ,20,37.576263,126.911323,북가좌1동,서대문구
3130, 가재울사거리 ,20,37.57455,126.918266,남가좌1동,서대문구
3131, 연가교 교차로 ,15,37.572158,126.921188,남가좌1동,서대문구
3132, 홍제교 ,10,37.591861,126.944213,홍은1동,서대문구
3134, SK리쳄블(서울아리수본부) ,10,37.561317,126.966583,충현동,서대문구
3201, 당산skv1센터 ,9,37.530735,126.899169,당산2동,영등포구
3202, 당산롯데캐슬프레스티지 ,15,37.52869,126.903862,당산2동,영등포구
3203, 도림동배드민턴체육관 ,10,37.506114,126.89859,도림동,영등포구
3204, 도림고가도로 밑 ,10,37.511241,126.898185,도림동,영등포구
3205, 문래현대2차 ,10,37.520217,126.882164,문래동,영등포구
3206, 문래동 주민센터 ,15,37.51707,126.899086,문래동,영등포구
3207, 양남사거리1 ,12,37.521827,126.889724,양평1동,영등포구
3211, 신길 래미안 프레비뉴 ,15,37.504383,126.908088,신길3동,영등포구
3214, 영등포 푸르지오 아파트 A ,10,37.512023,126.901054,영등포본동,영등포구
3215, 강변삼성래미안 ,15,37.529743,126.907829,당산2동,영등포구
3219, 영등포역 1번출구 ,10,37.514846,126.90773,영등포본동,영등포구
3220, 래미안에스티움 앞 (신풍로) ,20,37.500137,126.913978,신길7동,영등포구
3221, 서울특별시 남부교육지원청 ,10,37.519332,126.895301,문래동,영등포구
3306, 서울신우초등학교 ,10,37.462146,126.931777,삼성동,관악구
3310, 영락고등학교 ,15,37.476627,126.943641,청룡동,관악구
3311, 서울대입구역 4번 출구 ,12,37.48122,126.951576,청룡동,관악구
3401, 창신두산아파트 ,10,37.57376,127.013938,창신1동,종로구
3402, 이화공영주차장 ,10,37.576606,127.005569,이화동,종로구
3404, 서울특별시 중부교육지원청 ,9,37.571853,127.002357,종로5·6가동,종로구
3405, 파크팰리스 ,10,37.57455,126.97055,사직동,종로구
3407, 안국동사거리(신) ,18,37.575805,126.98339,삼청동,종로구
3408, 종로타워빌딩 ,13,37.570705,126.983238,종로1·2·3·4가동,종로구
3410, 종로3가역 8번출구 ,10,37.572467,126.991889,종로1·2·3·4가동,종로구
3411, 종묘 ,10,37.57072,126.994377,종로1·2·3·4가동,종로구
3412, 세운상가 ,15,37.570312,126.994544,종로1·2·3·4가동,종로구
3413, 종로플레이스 ,22,37.5732,126.997962,종로1·2·3·4가동,종로구
3414, 종로5가역 4번출구 ,10,37.571174,127.002227,종로5·6가동,종로구
3415, 동대문역6번출구 ,15,37.57146,127.010787,창신1동,종로구
3416, 동묘앞역 6번출구 ,15,37.571533,127.015617,창신1동,종로구
3417, 창신3동주민센터 ,12,37.577724,127.015251,창신3동,종로구
3418, 창신역2번 출구 ,10,37.579986,127.01506,창신3동,종로구
3419, 국립어린이과학관 ,14,37.581947,126.997367,혜화동,종로구
3420, 성균관대입구 사거리 B ,10,37.583274,126.998855,혜화동,종로구
3421, 혜화역 1번출구 ,10,37.583854,127.001853,혜화동,종로구
3422, 성균관대 정문 ,23,37.584796,126.997131,혜화동,종로구
3423, 현대그룹(본사) ,20,37.575836,127.000694,종로5·6가동,종로구
3425, 광화문 풍림스페이스본 1단지앞 ,7,37.57529,126.968955,사직동,종로구
3426, 독립문역 2번출구 뒤 ,10,37.575016,126.95755,무악동,종로구
3427, 인왕산 아이파크 정문 ,8,37.576667,126.955848,무악동,종로구
3428, 서울미술관 ,10,37.595127,126.963493,부암동,종로구
3429, HW컨벤션센터 앞 ,10,37.597259,126.963088,부암동,종로구
3430, 구기치안센터 앞 ,8,37.6095,126.95668,평창동,종로구
3431, 로제우스 레포츠센터 ,10,37.607601,126.957687,평창동,종로구
3432, 종로2가 사거리 ,15,37.570018,126.988807,종로1·2·3·4가동,종로구
3500, 군자역2번출구 ,7,37.557586,127.079696,중곡1동,광진구
3501, 광진구청 앞 ,10,37.539501,127.083,자양1동,광진구
3502, 중곡역 1번출구 ,18,37.565658,127.084297,중곡3동,광진구
3503, 광진유진스웰 ,14,37.550487,127.108955,광장동,광진구
3504, 원일교회 ,8,37.538051,127.076599,자양3동,광진구
3505, 신양초교앞 교차로 ,12,37.535221,127.068397,자양3동,광진구
3506, 영동대교 북단 ,10,37.537014,127.061096,자양4동,광진구
3507, 어린이회관 ,25,37.545951,127.078002,능동,광진구
3508, 화양사거리 ,7,37.548221,127.067878,화양동,광진구
3509, 세종사이버대학교 ,20,37.553417,127.073196,군자동,광진구
3510, 중곡SK아파트앞 ,10,37.568649,127.08625,중곡4동,광진구
3511, 응봉역 1번출구 ,10,37.55125,127.035102,응봉동,성동구
3513, 상왕십리역 1번출구 ,15,37.564609,127.029197,왕십리도선동,성동구
3514, 왕십리교회옆 ,10,37.566261,127.023696,왕십리도선동,성동구
3515, 서울숲 관리사무소 ,20,37.542816,127.042083,성수1가1동,성동구
3516, 구의아리수정수센터앞 ,15,37.543704,127.093246,광장동,광진구
3517, 용마사거리 ,10,37.562526,127.082275,중곡1동,광진구
3518, 군자역 7번출구뒤 ,8,37.556861,127.079139,군자동,광진구
3520, 광진경찰서 ,10,37.542518,127.084083,구의1동,광진구
3521, 현대홈타운 뒷길 ,10,37.543426,127.096618,광장동,광진구
3523, 건국대학교 과학관(이과대) 앞 ,10,37.541717,127.080169,화양동,광진구
3525, 금호스포츠센터앞 ,15,37.546089,127.02507,금호4가동,성동구
3527, 왕십리 자이아파트(101동 앞) ,5,37.56179,127.024391,신당5동,중구
3528, 광진정보도서관 ,8,37.550598,127.110511,광장동,광진구
3529, 어린이대공원정문 ,15,37.549789,127.075927,능동,광진구
3530, 왕십리자이아파트 후문(삼거리) ,10,37.560146,127.026359,왕십리2동,성동구
3531, 논골사거리(금호도서관 입구) ,10,37.554779,127.024841,금호1가동,성동구
3532, 왕십리KCC스위첸아파트 ,9,37.56068,127.026779,왕십리2동,성동구
3533, 건대입구역 사거리(롯데백화점) ,10,37.539138,127.070617,자양3동,광진구
3534, 건대입구역 5번출구 뒤 ,12,37.540126,127.069496,자양4동,광진구
3536, 중앙농협(자양동) ,10,37.53181,127.080741,자양1동,광진구
3537, 아차산 휴먼시아 아파트 옆 ,15,37.548488,127.093757,구의2동,광진구
3538, 서울숲 IT캐슬 ,9,37.550891,127.044761,성수1가2동,성동구
3539, 서원마을 ,10,37.563793,127.132835,암사2동,강동구
3542, 래미안 구의파크 스위트 ,17,37.545005,127.090034,구의2동,광진구
3543, 세종대학교(학술정보원) ,15,37.551372,127.07444,군자동,광진구
3544, 한양대역 3번 출구 ,10,37.554538,127.043777,사근동,성동구
3545, 한양대역 1번출구 ,10,37.556579,127.043357,사근동,성동구
3547, 상왕십리역 6번 출입구 ,12,37.56438,127.028869,왕십리2동,성동구
3548, 뚝섬역 6번출구 ,10,37.546958,127.047668,성수1가2동,성동구
3549, 건영아파트 앞 ,9,37.555141,127.071105,송정동,성동구
3550, 금호나들목 ,20,37.54404,127.0232,금호4가동,성동구
3551, 성동도로사업소 ,10,37.559799,127.056327,용답동,성동구
3553, 마장역3번출구 ,10,37.565979,127.043113,마장동,성동구
3555, 양지사거리(센트라스APT 115동앞) ,10,37.566818,127.029151,왕십리도선동,성동구
3556, 신금호파크자이APT앞 ,10,37.556106,127.019783,금호2·3가동,성동구
3557, 서울숲리버뷰자이APT105동 앞 ,8,37.55653,127.039131,행당1동,성동구
3558, 마장동 금호어울림APT앞 ,10,37.563396,127.04187,마장동,성동구
3559, 성동구민종합체육센터 앞 ,10,37.545909,127.044601,성수1가1동,성동구
3560, 성동구 견인차량 보관소 앞 ,22,37.563709,127.056449,용답동,성동구
3561, 행당동 삼부APT후문 ,10,37.559268,127.038398,행당1동,성동구
3563, 구의7단지현대아파트 ,5,37.5368,127.090835,구의3동,광진구
3564, 나루마당 ,10,37.547073,127.098289,구의2동,광진구
3566, 우성4차아파트 ,10,37.535072,127.07611,자양3동,광진구
3569, 건대병원후문 ,12,37.539566,127.072441,화양동,광진구
3570, 구의역 리버비스타 오피스텔 ,10,37.538097,127.089019,구의1동,광진구
3571, 화양 APT(횡단보도 옆) ,15,37.544349,127.065406,화양동,광진구
3573, 광나루안전체험관 ,15,37.551338,127.076713,능동,광진구
3575, 자양사거리(서원빌딩) ,6,37.536575,127.08258,자양1동,광진구
3579, 광진 캠퍼스시티 ,20,37.547889,127.067451,화양동,광진구
3581, 광진광장 ,15,37.54747,127.073966,군자동,광진구
3582, 화양동 우체국 ,14,37.547988,127.069503,화양동,광진구
3586, 군자역 비채온 오피스텔 ,8,37.557712,127.07727,군자동,광진구
3587, 우성식품 앞 ,15,37.542465,127.09423,구의3동,광진구
3588, 세종대학교(영실관) ,10,37.552371,127.073539,군자동,광진구
3600, 사근빗물펌프장 건너편 ,7,37.561191,127.049682,사근동,성동구
3602, 한국지역난방공사강남지사 ,5,37.492294,127.094337,일원1동,강남구
3604, 삼성중앙역 5번출구 ,15,37.512962,127.053863,삼성1동,강남구
3606, 신사동주민센터 옆 ,10,37.524227,127.02285,신사동,관악구
3606, 신사동주민센터 옆 ,10,37.524227,127.02285,신사동,강남구
3609, 언주초등학교 입구 ,16,37.485366,127.038497,도곡1동,강남구
3610, 윗반마을 입구 ,10,37.465347,127.108802,세곡동,강남구
3611, 방죽마을 입구 ,16,37.471233,127.107215,세곡동,강남구
3612, 은곡마을 ,10,37.467262,127.098014,세곡동,강남구
3614, 은마아파트 입구 사거리 ,10,37.498401,127.060935,대치2동,강남구
3615, 서울 논현동우체국 앞 ,10,37.514461,127.0326,논현2동,강남구
3616, 역삼중학교 앞(체육관 방향) ,10,37.495262,127.049507,역삼2동,강남구
3618, 서울율현초교 삼거리 ,10,37.47364,127.107025,세곡동,강남구
3620, 청담역 11번 출구 ,10,37.519256,127.051597,청담동,강남구
3621, 휘문고교 사거리 ,10,37.502864,127.06594,대치2동,강남구
3622, 은마아파트입구 사거리(1) ,7,37.499866,127.060501,대치2동,강남구
3623, 일원에코파크 앞(개포로 방면) ,10,37.495876,127.086502,일원1동,강남구
3624, 대모산입구역 7번 출구 앞 ,10,37.490177,127.073059,개포2동,강남구
3627, 압구정나들목 ,10,37.53075,127.041603,압구정동,강남구
3628, 역삼1동 주민센터 ,10,37.495212,127.033027,역삼1동,강남구
3629, 청담사거리(신한오피스텔빌딩 앞) ,4,37.524162,127.04895,청담동,강남구
3630, 개포우성6차아파트 정문 앞 ,10,37.476856,127.055366,개포4동,강남구
3634, 국악고교 앞 교차로 ,5,37.474021,127.048446,양재2동,서초구
3636, 삼성중앙역·플래티넘아파트 정류소 ,5,37.512641,127.051567,삼성2동,강남구
3637, 세곡데이케어센터 ,10,37.460723,127.102874,세곡동,강남구
3638, 신청담나들목 ,5,37.527961,127.051628,청담동,강남구
3640, 일원1동주민센터앞 사거리 ,7,37.490966,127.088363,일원1동,강남구
3641, 대청역 ,10,37.493705,127.079994,일원1동,강남구
3642, LH강남힐스테이트아파트 ,13,37.470928,127.089706,세곡동,강남구
3643, 더시그넘하우스 앞 ,5,37.472679,127.103759,세곡동,강남구
3644, 상록수아파트 ,5,37.482761,127.080421,일원본동,강남구
3646, 선정릉역 4번 출구 ,7,37.509784,127.04277,역삼1동,강남구
3647, 구룡역 1번 출구 ,10,37.486423,127.059318,개포2동,강남구
3648, 구룡역 4번 출구 ,5,37.486705,127.060501,개포2동,강남구
3649, 구룡역 5번 출구 ,6,37.486076,127.059219,개포2동,강남구
3651, 개포동역 4번출구 ,5,37.489295,127.066169,개포2동,강남구
3652, 한영외국어고등학교 ,10,37.547092,127.156219,상일1동,강동구
3653, 강동리버스트4단지아파트 404동 앞 ,10,37.572013,127.171707,강일동,강동구
3654, 강동리버스트4단지아파트 405동 앞 ,10,37.572017,127.17295,강일동,강동구
3655, 둔촌신성미소지움아파트 ,10,37.527263,127.142333,둔촌2동,강동구
3656, 둔촌푸르지오아파트 ,20,37.534072,127.145004,둔촌2동,강동구
3657, 서울천호동우체국 ,12,37.54074,127.125762,천호2동,강동구
3658, 프라이어팰리스아파트 ,10,37.554687,127.139404,암사1동,강동구
3659, 명일초등학교 옆 ,10,37.554645,127.142532,암사1동,강동구
3661, 명일동신동아아파트 앞 ,10,37.554832,127.151733,고덕1동,강동구
3663, 암사정수센터교차로(강동롯데캐슬퍼스트아파트) ,10,37.558456,127.144157,암사3동,강동구
3664, 맥도날드 서울둔촌DT점 앞 ,12,37.529388,127.137184,둔촌2동,강동구
3665, 고덕센트럴 아이파크상가 앞 ,12,37.550582,127.16542,상일1동,강동구
3668, 성내삼성아파트 ,10,37.531375,127.127075,성내1동,강동구
3671, 둔촌동역교차로 ,10,37.529262,127.136497,성내3동,강동구
3673, 강동리버스트6단지 ,10,37.570953,127.171745,강일동,강동구
3674, 강동리버스트7단지 ,10,37.570739,127.172157,강일동,강동구
3675, 강동리버스트8단지 ,20,37.571804,127.174468,강일동,강동구
3676, 강동리엔파크9단지 ,10,37.557365,127.180137,상일2동,강동구
3680, 강동역3번출구 ,6,37.535415,127.133094,성내2동,강동구
3681, 길동 마루빌딩 ,10,37.536853,127.139488,길동,강동구
3682, 길동 동호빌딩 ,10,37.541545,127.141479,길동,강동구
3683, KT&G강동지사 ,10,37.543708,127.14228,길동,강동구
3684, 고덕자이(105동 앞) ,10,37.553611,127.172035,상일1동,강동구
3685, 강동리엔파크14단지(1401동 앞) ,15,37.552124,127.180641,상일2동,강동구
3686, 고덕 래미안 힐스테이트(101동) ,8,37.558856,127.151489,고덕1동,강동구
3688, 상일동산(동아아파트앞 교차로) ,10,37.545818,127.166885,상일1동,강동구
3689, 강일역 3번출구 ,20,37.557403,127.176536,상일2동,강동구
3690, 강일역 4번출구 ,23,37.557071,127.17514,상일2동,강동구
3692, 둔촌오륜역 1번 출구 ,10,37.519603,127.13871,둔촌1동,강동구
3694, 강동리엔파크 13단지(1303동 앞) ,14,37.553028,127.180755,상일2동,강동구
3698, 명일역 3번출구 옆 ,6,37.551425,127.14421,명일1동,강동구
3699, 상일파출소 옆 ,15,37.556552,127.165878,상일1동,강동구
3700, 강변그대가리버뷰 입구 맞은편 ,8,37.548164,127.122573,천호2동,강동구
3701, 방아삼거리 ,8,37.523281,127.146133,둔촌1동,강동구
3703, 삼양입구사거리 ,10,37.617088,127.028099,송천동,강북구
3707, 드래곤타워 앞 ,10,37.637134,127.031379,번1동,강북구
3714, 송천센트레빌 ,10,37.612209,127.024978,송천동,강북구
3718, 번동3단지 버스정류장 ,11,37.628685,127.043907,번3동,강북구
3720, 우이천 창번교 ,5,37.63536,127.037673,번1동,강북구
